"Animal.ID","Name.x","DateTime.x","MonthYear.x","Found.Location","Intake.Type","Intake.Condition","Animal.Type.x","Sex.upon.Intake","Age.upon.Intake","Breed.x","Color.x","Name.y","DateTime.y","MonthYear.y","Date.of.Birth","Outcome.Type","Outcome.Subtype","Animal.Type.y","Sex.upon.Outcome","Age.upon.Outcome","Breed.y","Color.y","diffTime","lat","lng"
"A462580","Chico",2014-12-04 10:11:00,"12/04/2014 10:11:00 AM","8401 Kimble Cv in Austin (TX)","Stray","Normal","Dog","Neutered Male","10 years","Pit Bull","Brown Brindle/White","Chico",2014-12-06 03:32:00,"12/06/2014 03:32:00 PM","10/01/2004","Return to Owner","","Dog","Neutered Male","10 years","Pit Bull","Brown Brindle/White",2481,30.360187,-97.722127
"A462580","Chico",2014-12-17 11:36:00,"12/17/2014 11:36:00 PM","N Lamar & Longsour in Austin (TX)","Public Assist","Normal","Dog","Neutered Male","10 years","Pit Bull","Brown Brindle/White","Chico",2015-01-02 12:26:00,"01/02/2015 12:26:00 PM","10/01/2004","Return to Owner","","Dog","Neutered Male","10 years","Pit Bull","Brown Brindle/White",23090,30.3673302,-97.6946069
"A462580","Chico",2015-07-20 11:36:00,"07/20/2015 11:36:00 PM","1200 E 52Nd St in Austin (TX)","Public Assist","Normal","Dog","Neutered Male","10 years","Pit Bull","Brown Brindle/White","Chico",2015-08-04 06:09:00,"08/04/2015 06:09:00 PM","10/01/2004","Return to Owner","","Dog","Neutered Male","10 years","Pit Bull","Brown Brindle/White",21273,30.309724,-97.707385
"A462580","Chico",2015-08-20 12:02:00,"08/20/2015 12:02:00 AM","300 Croslin St in Austin (TX)","Public Assist","Normal","Dog","Neutered Male","10 years","Pit Bull","Brown Brindle/White","Chico",2015-08-21 04:18:00,"08/21/2015 04:18:00 PM","10/01/2004","Return to Owner","","Dog","Neutered Male","10 years","Pit Bull","Brown Brindle/White",976,30.336605,-97.707053
"A462580","Chico",2015-09-19 03:10:00,"09/19/2015 03:10:00 PM","Austin (TX)","Owner Surrender","Normal","Dog","Neutered Male","10 years","Pit Bull","Brown Brindle/White","Chico",2015-10-02 06:25:00,"10/02/2015 06:25:00 PM","10/01/2004","Return to Owner","","Dog","Neutered Male","11 years","Pit Bull","Brown Brindle/White",18915,30.267153,-97.7430608
"A593109","Sydney",2015-01-24 03:03:00,"01/24/2015 03:03:00 PM","5309 E Riverside Dr in Austin (TX)","Stray","Normal","Dog","Spayed Female","5 years","Pit Bull Mix","White/Black","Sydney",2015-01-24 04:10:00,"01/24/2015 04:10:00 PM","02/05/2009","Return to Owner","","Dog","Spayed Female","5 years","Pit Bull Mix","White/Black",67,30.2292939,-97.7132427
"A593109","Sydney",2015-05-02 03:47:00,"05/02/2015 03:47:00 PM","Montopolis & Fairway in Austin (TX)","Stray","Normal","Dog","Spayed Female","6 years","Pit Bull Mix","White/Black","Sydney",2015-05-02 05:23:00,"05/02/2015 05:23:00 PM","02/05/2009","Return to Owner","","Dog","Spayed Female","6 years","Pit Bull Mix","White/Black",96,30.2280101,-97.7014946
"A593109","Sydney",2015-12-21 04:01:00,"12/21/2015 04:01:00 PM","2901 Montopolis Dr in Austin (TX)","Stray","Normal","Dog","Spayed Female","6 years","Pit Bull Mix","White/Black","Sydney",2015-12-21 06:17:00,"12/21/2015 06:17:00 PM","02/05/2009","Return to Owner","","Dog","Spayed Female","6 years","Pit Bull Mix","White/Black",136,30.2143501,-97.7096916
"A593109","Sydney",2016-01-19 01:21:00,"01/19/2016 01:21:00 PM","1101 Grove Blvd in Austin (TX)","Stray","Normal","Dog","Spayed Female","6 years","Pit Bull Mix","White/Black","Sydney",2016-01-19 06:09:00,"01/19/2016 06:09:00 PM","02/05/2009","Return to Owner","","Dog","Spayed Female","6 years","Pit Bull Mix","White/Black",288,30.2356879,-97.7030084
"A593109","Sydney",2016-03-07 10:59:00,"03/07/2016 10:59:00 AM","2500 Montopolis Dr in Austin (TX)","Stray","Normal","Dog","Spayed Female","7 years","Pit Bull Mix","White/Black","Sydney",2016-03-07 11:30:00,"03/07/2016 11:30:00 AM","02/05/2009","Return to Owner","","Dog","Spayed Female","7 years","Pit Bull Mix","White/Black",31,30.220152,-97.708415
"A593537","Chacha",2014-05-13 12:08:00,"05/13/2014 12:08:00 PM","1104 Desirable Dr in Austin (TX)","Stray","Normal","Dog","Spayed Female","5 years","Labrador Retriever Mix","Black","Chacha",2014-05-15 12:12:00,"05/15/2014 12:12:00 PM","02/13/2009","Return to Owner","","Dog","Spayed Female","5 years","Labrador Retriever Mix","Black",2884,30.262907,-97.686525
"A593537","Chacha",2014-08-12 03:40:00,"08/12/2014 03:40:00 PM","Ledesma Rd And Springdale in Austin (TX)","Stray","Normal","Dog","Spayed Female","5 years","Labrador Retriever Mix","Black","Chacha",2014-08-13 05:01:00,"08/13/2014 05:01:00 PM","02/13/2009","Return to Owner","","Dog","Spayed Female","5 years","Labrador Retriever Mix","Black",1521,30.2740168,-97.6901542
"A593537","Chacha",2014-09-11 04:56:00,"09/11/2014 04:56:00 PM","1132 Garland in Austin (TX)","Stray","Normal","Dog","Spayed Female","5 years","Labrador Retriever Mix","Black","Chacha",2014-09-14 06:05:00,"09/14/2014 06:05:00 PM","02/13/2009","Adoption","","Dog","Spayed Female","5 years","Labrador Retriever Mix","Black",4389,30.270433,-97.685174
"A593537","Chacha",2015-03-01 10:41:00,"03/01/2015 10:41:00 AM","1000 Blk Lott Ave in Austin (TX)","Stray","Normal","Dog","Spayed Female","6 years","Labrador Retriever Mix","Black","Chacha",2015-03-04 06:14:00,"03/04/2015 06:14:00 PM","02/13/2009","Return to Owner","","Dog","Spayed Female","6 years","Labrador Retriever Mix","Black",4053,30.2715873,-97.6814569
"A593537","Chacha",2015-11-23 11:14:00,"11/23/2015 11:14:00 AM","Ledesma Rd And Richardine Ave in Austin (TX)","Stray","Normal","Dog","Spayed Female","6 years","Labrador Retriever Mix","Black","Chacha",2015-12-01 02:49:00,"12/01/2015 02:49:00 PM","02/13/2009","Return to Owner","","Dog","Spayed Female","6 years","Labrador Retriever Mix","Black",11015,30.2719267,-97.6856149
"A593537","Chacha",2015-11-30 11:51:00,"11/30/2015 11:51:00 AM","4604 Alf Ave in Austin (TX)","Stray","Normal","Dog","Spayed Female","6 years","Labrador Retriever Mix","Black","Chacha",2015-12-01 02:49:00,"12/01/2015 02:49:00 PM","02/13/2009","Return to Owner","","Dog","Spayed Female","6 years","Labrador Retriever Mix","Black",898,30.268819,-97.692828
"A613676","Hudson Hawk",2014-08-15 01:34:00,"08/15/2014 01:34:00 PM","12Th/Ih-35 in Austin (TX)","Stray","Normal","Dog","Neutered Male","5 years","Beagle","White/Tan","Hudson Hawk",2014-08-16 06:03:00,"08/16/2014 06:03:00 PM","11/08/2008","Return to Owner","","Dog","Neutered Male","5 years","Beagle","White/Tan",1709,30.272088,-97.730842
"A613676","Hudson Hawk",2014-09-27 04:15:00,"09/27/2014 04:15:00 PM","2206 New York Avenue in Austin (TX)","Stray","Normal","Dog","Neutered Male","5 years","Beagle","White/Tan","Hudson Hawk",2014-09-27 04:38:00,"09/27/2014 04:38:00 PM","11/08/2008","Return to Owner","","Dog","Neutered Male","5 years","Beagle","White/Tan",23,30.273604,-97.71615
"A613676","Hudson Hawk",2014-12-19 05:22:00,"12/19/2014 05:22:00 PM","902 Olive St in Austin (TX)","Stray","Normal","Dog","Neutered Male","6 years","Beagle","White/Tan","Hudson Hawk",2014-12-19 06:40:00,"12/19/2014 06:40:00 PM","11/08/2008","Return to Owner","","Dog","Neutered Male","6 years","Beagle","White/Tan",78,30.2711627,-97.7307254
"A613676","Hudson Hawk",2016-01-02 01:22:00,"01/02/2016 01:22:00 PM","Airport Blvd And E 12Th St in Austin (TX)","Stray","Normal","Dog","Neutered Male","7 years","Beagle","White/Tan","Hudson Hawk",2016-01-02 02:18:00,"01/02/2016 02:18:00 PM","11/08/2008","Return to Owner","","Dog","Neutered Male","7 years","Beagle","White/Tan",56,30.2768544,-97.7003386
"A616444","Springdale",2013-11-04 10:54:00,"11/04/2013 10:54:00 AM","Tillary And Lyons in Austin (TX)","Stray","Normal","Dog","Neutered Male","3 years","Labrador Retriever Mix","Yellow","Springdale",2013-11-12 06:12:00,"11/12/2013 06:12:00 PM","12/22/2009","Return to Owner","","Dog","Neutered Male","3 years","Labrador Retriever Mix","Yellow",11238,30.2624782,-97.7038536
"A616444","Springdale",2013-11-12 11:04:00,"11/12/2013 11:04:00 AM","Lyons Rd/Tillery St in Austin (TX)","Stray","Normal","Dog","Neutered Male","3 years","Labrador Retriever Mix","Yellow","Springdale",2013-11-27 03:20:00,"11/27/2013 03:20:00 PM","12/22/2009","Return to Owner","","Dog","Neutered Male","3 years","Labrador Retriever Mix","Yellow",21136,30.267153,-97.7430608
"A616444","Springdale",2013-11-27 11:43:00,"11/27/2013 11:43:00 AM","638 Tillery in Austin (TX)","Stray","Normal","Dog","Neutered Male","3 years","Labrador Retriever Mix","Yellow","Springdale",2014-04-14 02:26:00,"04/14/2014 02:26:00 PM","12/22/2009","Return to Owner","","Dog","Neutered Male","4 years","Labrador Retriever Mix","Yellow",198103,30.2574528,-97.7064263
"A616444","Springdale",2014-04-14 08:10:00,"04/14/2014 08:10:00 AM","Tillery And Ceasar Chavez in Austin (TX)","Stray","Normal","Dog","Neutered Male","4 years","Labrador Retriever Mix","Yellow","Springdale",2014-11-14 03:12:00,"11/14/2014 03:12:00 PM","12/22/2009","Return to Owner","","Dog","Neutered Male","4 years","Labrador Retriever Mix","Yellow",307922,30.2516962,-97.7087877
"A616444","Springdale",2014-11-14 11:23:00,"11/14/2014 11:23:00 AM","3101 Prado in Austin (TX)","Stray","Normal","Dog","Neutered Male","4 years","Labrador Retriever Mix","Yellow","Springdale",2015-05-15 04:52:00,"05/15/2015 04:52:00 PM","12/22/2009","Return to Owner","","Dog","Neutered Male","5 years","Labrador Retriever Mix","Yellow",261629,30.260624,-97.705735
"A616444","Springdale",2015-05-15 02:51:00,"05/15/2015 02:51:00 PM","711 Tillery Street in Austin (TX)","Stray","Normal","Dog","Neutered Male","5 years","Labrador Retriever Mix","Yellow","Springdale",2015-05-15 04:52:00,"05/15/2015 04:52:00 PM","12/22/2009","Return to Owner","","Dog","Neutered Male","5 years","Labrador Retriever Mix","Yellow",121,30.2592525,-97.7052467
"A621164","Gigi",2013-10-28 11:14:00,"10/28/2013 11:14:00 AM","7000 Guadalupe St in Austin (TX)","Stray","Normal","Dog","Spayed Female","9 years","Beagle Mix","White/Brown","Gigi",2013-11-23 11:57:00,"11/23/2013 11:57:00 AM","06/02/2004","Adoption","","Dog","Spayed Female","9 years","Beagle Mix","White/Brown",37543,30.335922,-97.716039
"A621164","Gigi",2013-12-14 11:05:00,"12/14/2013 11:05:00 AM","Austin (TX)","Owner Surrender","Normal","Dog","Spayed Female","9 years","Beagle Mix","White/Brown","Gigi",2014-01-25 11:42:00,"01/25/2014 11:42:00 AM","06/02/2004","Return to Owner","","Dog","Spayed Female","9 years","Beagle Mix","White/Brown",60517,30.267153,-97.7430608
"A621164","Gigi",2014-04-22 06:29:00,"04/22/2014 06:29:00 PM","1156 W. Cesar Chavez in Austin (TX)","Stray","Normal","Dog","Spayed Female","9 years","Beagle Mix","White/Brown","Gigi",2014-05-13 11:57:00,"05/13/2014 11:57:00 AM","06/02/2004","Return to Owner","","Dog","Spayed Female","9 years","Beagle Mix","White/Brown",30568,30.269746,-97.7592909
"A621164","Gigi",2014-06-14 03:46:00,"06/14/2014 03:46:00 PM","Airport Blvd And N Lamar in Austin (TX)","Stray","Normal","Dog","Spayed Female","10 years","Beagle Mix","White/Brown","Gigi",2014-07-15 12:57:00,"07/15/2014 12:57:00 PM","06/02/2004","Return to Owner","","Dog","Spayed Female","10 years","Beagle Mix","White/Brown",45191,30.337577,-97.7188216
"A621164","Gigi",2014-08-05 01:58:00,"08/05/2014 01:58:00 PM","Austin (TX)","Owner Surrender","Normal","Dog","Spayed Female","10 years","Beagle Mix","White/Brown","Gigi",2014-08-23 03:58:00,"08/23/2014 03:58:00 PM","06/02/2004","Adoption","","Dog","Spayed Female","10 years","Beagle Mix","White/Brown",26040,30.267153,-97.7430608
"A623219","Bear",2014-01-14 01:44:00,"01/14/2014 01:44:00 PM","Slaughter And Westgate in Austin (TX)","Stray","Normal","Dog","Neutered Male","2 years","Pit Bull Mix","Blue Tiger/White","Bear",2014-01-14 06:41:00,"01/14/2014 06:41:00 PM","10/01/2011","Return to Owner","","Dog","Neutered Male","2 years","Pit Bull Mix","Blue Tiger/White",297,30.1791939,-97.8410243
"A623219","Bear",2014-11-20 05:44:00,"11/20/2014 05:44:00 PM","3328 W Slaughter in Austin (TX)","Stray","Normal","Dog","Neutered Male","3 years","Pit Bull Mix","Blue Tiger/White","Bear",2014-11-20 06:47:00,"11/20/2014 06:47:00 PM","10/01/2011","Return to Owner","","Dog","Neutered Male","3 years","Pit Bull Mix","Blue Tiger/White",63,30.1827502,-97.8470139
"A623219","Bear",2015-05-20 10:47:00,"05/20/2015 10:47:00 AM","2417 W. Slaughter Ln in Austin (TX)","Stray","Normal","Dog","Neutered Male","3 years","Pit Bull Mix","Blue Tiger/White","Bear",2015-05-25 06:07:00,"05/25/2015 06:07:00 PM","10/01/2011","Return to Owner","","Dog","Neutered Male","3 years","Pit Bull Mix","Blue Tiger/White",6920,30.1754406,-97.8300807
"A623219","Bear",2015-05-24 01:11:00,"05/24/2015 01:11:00 PM","Jadewood Ct And Lindshire Ln in Austin (TX)","Stray","Normal","Dog","Neutered Male","3 years","Pit Bull Mix","Blue Tiger/White","Bear",2015-05-25 06:07:00,"05/25/2015 06:07:00 PM","10/01/2011","Return to Owner","","Dog","Neutered Male","3 years","Pit Bull Mix","Blue Tiger/White",1736,30.1773634,-97.8392981
"A623561","Marley",2014-09-29 06:49:00,"09/29/2014 06:49:00 PM","Austin (TX)","Public Assist","Normal","Dog","Neutered Male","5 years","Pit Bull Mix","Blue/White","Marley",2014-10-04 11:47:00,"10/04/2014 11:47:00 AM","04/03/2009","Return to Owner","","Dog","Neutered Male","5 years","Pit Bull Mix","Blue/White",7498,30.267153,-97.7430608
"A623561","Marley",2015-04-25 10:38:00,"04/25/2015 10:38:00 AM","Travis (TX)","Public Assist","Normal","Dog","Neutered Male","6 years","Pit Bull Mix","Blue/White","Marley",2015-04-28 05:33:00,"04/28/2015 05:33:00 PM","04/03/2009","Return to Owner","","Dog","Neutered Male","6 years","Pit Bull Mix","Blue/White",4015,31.1354588,-97.0027678
"A623561","Marley",2015-06-08 05:44:00,"06/08/2015 05:44:00 PM","2421 Elara Drive in Travis (TX)","Stray","Normal","Dog","Neutered Male","6 years","Pit Bull Mix","Blue/White","Marley",2015-06-10 07:03:00,"06/10/2015 07:03:00 PM","04/03/2009","Return to Owner","","Dog","Neutered Male","6 years","Pit Bull Mix","Blue/White",2959,30.213939,-97.6378
"A623561","Marley",2015-06-28 11:43:00,"06/28/2015 11:43:00 AM","2100 Elara in Travis (TX)","Stray","Normal","Dog","Neutered Male","6 years","Pit Bull Mix","Blue/White","Marley",2015-06-29 12:06:00,"06/29/2015 12:06:00 PM","04/03/2009","Return to Owner","","Dog","Neutered Male","6 years","Pit Bull Mix","Blue/White",1463,30.216527,-97.637112
"A623561","Marley",2015-11-01 03:27:00,"11/01/2015 03:27:00 PM","Fm 973 And Garden Grove in Austin (TX)","Stray","Normal","Dog","Neutered Male","6 years","Pit Bull Mix","Blue/White","Marley",2015-11-02 11:56:00,"11/02/2015 11:56:00 AM","04/03/2009","Return to Owner","","Dog","Neutered Male","6 years","Pit Bull Mix","Blue/White",1949,30.2253292,-97.631927
"A663819","Zeus",2014-03-26 10:30:00,"03/26/2014 10:30:00 AM","Manchaca & Ben White in Austin (TX)","Stray","Normal","Dog","Neutered Male","1 year","Pit Bull Mix","Black/White","Zeus",2014-03-30 12:30:00,"03/30/2014 12:30:00 PM","09/10/2012","Return to Owner","","Dog","Neutered Male","1 year","Pit Bull Mix","Black/White",5880,30.2303391,-97.7880671
"A663819","Zeus",2015-03-10 03:55:00,"03/10/2015 03:55:00 PM","Greenland And Whispering Winds in Austin (TX)","Stray","Normal","Dog","Neutered Male","2 years","Pit Bull Mix","Black/White","Zeus",2015-03-10 05:40:00,"03/10/2015 05:40:00 PM","09/10/2012","Return to Owner","","Dog","Neutered Male","2 years","Pit Bull Mix","Black/White",105,30.2004459,-97.8145908
"A663819","Zeus",2015-04-29 06:38:00,"04/29/2015 06:38:00 PM","7404 Mcneil Drive in Austin (TX)","Stray","Normal","Dog","Neutered Male","2 years","Pit Bull Mix","Black/White","Zeus",2015-06-19 06:01:00,"06/19/2015 06:01:00 PM","09/10/2012","Adoption","","Dog","Neutered Male","2 years","Pit Bull Mix","Black/White",73403,30.4351319,-97.7683875
"A663819","Zeus",2015-11-09 10:57:00,"11/09/2015 10:57:00 AM","2701 W Wm Cannon in Austin (TX)","Stray","Normal","Dog","Neutered Male","3 years","Pit Bull Mix","Black/White","Zeus",2015-11-11 06:55:00,"11/11/2015 06:55:00 PM","09/10/2012","Return to Owner","","Dog","Neutered Male","3 years","Pit Bull Mix","Black/White",2638,30.2065815,-97.8165669
"A667894","Ginger",2013-11-24 03:47:00,"11/24/2013 03:47:00 PM","969/ Regency Dr in Austin (TX)","Stray","Normal","Dog","Spayed Female","1 year","American Foxhound Mix","Tricolor","Ginger",2013-11-26 05:55:00,"11/26/2013 05:55:00 PM","11/24/2012","Return to Owner","","Dog","Spayed Female","1 year","American Foxhound Mix","Tricolor",3008,30.2875348,-97.6604314
"A667894","Ginger",2014-02-22 01:59:00,"02/22/2014 01:59:00 PM","5315 Ed Bluestein in Austin (TX)","Stray","Normal","Dog","Spayed Female","1 year","American Foxhound Mix","Tricolor","Ginger",2014-02-22 06:05:00,"02/22/2014 06:05:00 PM","11/24/2012","Return to Owner","","Dog","Spayed Female","1 year","American Foxhound Mix","Tricolor",246,30.291833,-97.6624273
"A667894","Ginger",2014-05-16 12:57:00,"05/16/2014 12:57:00 PM","W Howard Ln & The Lakes Blvd in Austin (TX)","Stray","Normal","Dog","Spayed Female","1 year","American Foxhound Mix","Tricolor","Ginger",2015-10-05 06:11:00,"10/05/2015 06:11:00 PM","11/24/2012","Return to Owner","","Dog","Spayed Female","2 years","American Foxhound Mix","Tricolor",729674,30.421714,-97.6658816
"A667894","Ginger",2015-10-05 11:47:00,"10/05/2015 11:47:00 AM","4006 Garden View in Austin (TX)","Stray","Normal","Dog","Spayed Female","2 years","American Foxhound Mix","Tricolor","Ginger",2016-05-02 05:40:00,"05/02/2016 05:40:00 PM","11/24/2012","Return to Owner","","Dog","Spayed Female","3 years","American Foxhound Mix","Tricolor",302033,30.232558,-97.784719
"A667894","Ginger",2016-04-30 02:14:00,"04/30/2016 02:14:00 PM","5403 Garden View Cove in Austin (TX)","Stray","Normal","Dog","Spayed Female","3 years","American Foxhound Mix","Tricolor","Ginger",2016-05-02 05:40:00,"05/02/2016 05:40:00 PM","11/24/2012","Return to Owner","","Dog","Spayed Female","3 years","American Foxhound Mix","Tricolor",3086,30.289857,-97.659738
"A668183","Nacha",2014-06-27 11:34:00,"06/27/2014 11:34:00 AM","Austin (TX)","Public Assist","Normal","Dog","Spayed Female","10 months","Dachshund Mix","Black/White","Nacha",2014-07-06 03:57:00,"07/06/2014 03:57:00 PM","07/29/2013","Return to Owner","","Dog","Spayed Female","11 months","Dachshund Mix","Black/White",12503,30.267153,-97.7430608
"A668183","Nacha",2015-10-22 06:38:00,"10/22/2015 06:38:00 PM","Austin (TX)","Public Assist","Normal","Dog","Spayed Female","2 years","Dachshund Mix","Black/White","Nacha",2015-11-01 04:49:00,"11/01/2015 04:49:00 PM","07/29/2013","Return to Owner","","Dog","Spayed Female","2 years","Dachshund Mix","Black/White",14351,30.267153,-97.7430608
"A668183","Nacha",2016-01-28 01:43:00,"01/28/2016 01:43:00 PM","6103 Manor #133 in Austin (TX)","Public Assist","Normal","Dog","Spayed Female","2 years","Dachshund Mix","Black/White","Nacha",2016-02-03 12:17:00,"02/03/2016 12:17:00 PM","07/29/2013","Return to Owner","","Dog","Spayed Female","2 years","Dachshund Mix","Black/White",9274,30.3072517,-97.6781392
"A668183","Nacha",2016-05-11 02:37:00,"05/11/2016 02:37:00 PM","Austin (TX)","Stray","Normal","Dog","Spayed Female","2 years","Dachshund Mix","Black/White","Nacha",2016-05-25 09:20:00,"05/25/2016 09:20:00 AM","07/29/2013","Transfer","Partner","Dog","Spayed Female","2 years","Dachshund Mix","Black/White",20563,30.267153,-97.7430608
"A669782","Jake",2013-12-27 11:29:00,"12/27/2013 11:29:00 AM","Marion Cricket And Pinehurst in Austin (TX)","Stray","Normal","Dog","Intact Male","1 year","Labrador Retriever/Great Pyrenees","Yellow","Jake",2013-12-31 04:42:00,"12/31/2013 04:42:00 PM","06/27/2012","Return to Owner","","Dog","Neutered Male","1 year","Labrador Retriever/Great Pyrenees","Yellow",5353,30.1317817,-97.7837592
"A669782","Jake",2014-04-08 03:23:00,"04/08/2014 03:23:00 PM","Ben White And Riverside in Austin (TX)","Stray","Normal","Dog","Neutered Male","1 year","Labrador Retriever/Great Pyrenees","Yellow","Jake",2014-04-16 06:04:00,"04/16/2014 06:04:00 PM","06/27/2012","Adoption","","Dog","Neutered Male","1 year","Labrador Retriever/Great Pyrenees","Yellow",11681,30.2188576,-97.6911201
"A669782","Jake",2014-12-16 11:57:00,"12/16/2014 11:57:00 AM","Willow St in Austin (TX)","Stray","Normal","Dog","Neutered Male","2 years","Labrador Retriever/Great Pyrenees","Yellow","Jake",2014-12-20 04:14:00,"12/20/2014 04:14:00 PM","06/27/2012","Adoption","","Dog","Neutered Male","2 years","Labrador Retriever/Great Pyrenees","Yellow",5297,30.2568929,-97.7270624
"A669782","Jake",2015-01-07 10:52:00,"01/07/2015 10:52:00 AM","Austin (TX)","Owner Surrender","Normal","Dog","Neutered Male","2 years","Labrador Retriever/Great Pyrenees","Yellow","Jake",2015-01-10 06:20:00,"01/10/2015 06:20:00 PM","06/27/2012","Adoption","","Dog","Neutered Male","2 years","Labrador Retriever/Great Pyrenees","Yellow",4048,30.267153,-97.7430608
"A669782","Jake",2015-03-09 01:46:00,"03/09/2015 01:46:00 PM","Colton Bluff Springs Rd/Salt Springs Dr in Austin (TX)","Owner Surrender","Normal","Dog","Neutered Male","2 years","Labrador Retriever/Great Pyrenees","Yellow","Jake",2015-03-24 04:44:00,"03/24/2015 04:44:00 PM","06/27/2012","Adoption","","Dog","Neutered Male","2 years","Labrador Retriever/Great Pyrenees","Yellow",21778,30.267153,-97.7430608
"A669900","Jinx",2013-12-29 03:33:00,"12/29/2013 03:33:00 PM","15300 Lucian St in Austin (TX)","Stray","Normal","Dog","Intact Female","2 months","Greyhound Mix","Brown Brindle/White","Jinx",2014-01-03 06:05:00,"01/03/2014 06:05:00 PM","10/22/2013","Adoption","","Dog","Spayed Female","2 months","Greyhound Mix","Brown Brindle/White",7352,30.23864,-97.577989
"A669900","Jinx",2015-04-20 04:02:00,"04/20/2015 04:02:00 PM","Austin (TX)","Owner Surrender","Normal","Dog","Spayed Female","1 year","Greyhound Mix","Brown Brindle/White","Jinx",2015-07-08 07:14:00,"07/08/2015 07:14:00 PM","10/22/2013","Adoption","","Dog","Spayed Female","1 year","Greyhound Mix","Brown Brindle/White",113952,30.267153,-97.7430608
"A669900","Jinx",2015-07-17 12:12:00,"07/17/2015 12:12:00 PM","Austin (TX)","Owner Surrender","Normal","Dog","Spayed Female","1 year","Greyhound Mix","Brown Brindle/White","Jinx",2015-08-02 06:38:00,"08/02/2015 06:38:00 PM","10/22/2013","Adoption","","Dog","Spayed Female","1 year","Greyhound Mix","Brown Brindle/White",22706,30.267153,-97.7430608
"A669900","Jinx",2015-08-03 01:20:00,"08/03/2015 01:20:00 PM","Austin (TX)","Owner Surrender","Normal","Dog","Spayed Female","1 year","Greyhound Mix","Brown Brindle/White","Jinx",2015-08-09 04:58:00,"08/09/2015 04:58:00 PM","10/22/2013","Return to Owner","","Dog","Spayed Female","1 year","Greyhound Mix","Brown Brindle/White",8858,30.267153,-97.7430608
"A670612","Sheila",2014-01-11 11:01:00,"01/11/2014 11:01:00 AM","1314 Patterson Rd in Austin (TX)","Stray","Normal","Dog","Intact Female","2 years","Beagle","Brown/White","Sheila",2014-11-09 03:14:00,"11/09/2014 03:14:00 PM","09/04/2011","Return to Owner","","Dog","Intact Female","3 years","Beagle","Brown/White",434413,30.3075066,-97.8814148
"A670612","Sheila",2014-11-08 06:10:00,"11/08/2014 06:10:00 PM","9201 Scenic Bluff Dr in Travis (TX)","Stray","Normal","Dog","Intact Female","3 years","Beagle","Brown/White","Sheila",2014-11-09 03:14:00,"11/09/2014 03:14:00 PM","09/04/2011","Return to Owner","","Dog","Intact Female","3 years","Beagle","Brown/White",1264,30.3030581,-97.8843811
"A670612","Sheila",2015-09-03 01:04:00,"09/03/2015 01:04:00 PM","Lost Creek And Barton Creek Blvd in Austin (TX)","Stray","Normal","Dog","Intact Female","4 years","Beagle","Brown/White","Sheila",2015-09-04 11:28:00,"09/04/2015 11:28:00 AM","09/04/2011","Return to Owner","","Dog","Intact Female","4 years","Beagle","Brown/White",2064,30.2842224,-97.8752922
"A670612","Sheila",2015-11-13 09:56:00,"11/13/2015 09:56:00 PM","4434 Frontier Trl in Austin (TX)","Stray","Normal","Dog","Intact Female","4 years","Beagle","Brown/White","Sheila",2015-11-15 11:35:00,"11/15/2015 11:35:00 AM","09/04/2011","Return to Owner","","Dog","Intact Female","4 years","Beagle","Brown/White",2979,30.2314364,-97.7957763
"A670612","Sheila",2016-04-02 04:52:00,"04/02/2016 04:52:00 PM","9201 Scenic Bluff Dr in Austin (TX)","Stray","Normal","Dog","Intact Female","4 years","Beagle","Brown/White","Sheila",2016-04-03 02:24:00,"04/03/2016 02:24:00 PM","09/04/2011","Return to Owner","","Dog","Intact Female","4 years","Beagle","Brown/White",1292,30.3030581,-97.8843811
"A671704","Chloe",2014-11-08 11:23:00,"11/08/2014 11:23:00 AM","755 Springdale Road in Austin (TX)","Stray","Normal","Dog","Intact Female","2 years","Pit Bull/Boxer","Black/White","Chloe",2014-11-10 05:37:00,"11/10/2014 05:37:00 PM","01/29/2012","Return to Owner","","Dog","Spayed Female","2 years","Pit Bull/Boxer","Black/White",2534,30.2576,-97.7001279
"A671704","Chloe",2015-05-23 07:07:00,"05/23/2015 07:07:00 AM","812 Springdale in Austin (TX)","Stray","Normal","Dog","Spayed Female","3 years","Pit Bull/Boxer","Black/White","Chloe",2015-05-27 05:55:00,"05/27/2015 05:55:00 PM","01/29/2012","Return to Owner","","Dog","Spayed Female","3 years","Pit Bull/Boxer","Black/White",5688,30.2592327,-97.7002459
"A671704","Chloe",2015-05-27 11:01:00,"05/27/2015 11:01:00 AM","4900 Gonzales St in Austin (TX)","Stray","Normal","Dog","Spayed Female","3 years","Pit Bull/Boxer","Black/White","Chloe",2015-05-29 04:51:00,"05/29/2015 04:51:00 PM","01/29/2012","Return to Owner","","Dog","Spayed Female","3 years","Pit Bull/Boxer","Black/White",2510,30.2554633,-97.6978077
"A671704","Chloe",2015-05-29 12:47:00,"05/29/2015 12:47:00 PM","812 Springdale in Austin (TX)","Stray","Normal","Dog","Spayed Female","3 years","Pit Bull/Boxer","Black/White","Chloe",2015-07-15 02:10:00,"07/15/2015 02:10:00 PM","01/29/2012","Return to Owner","","Dog","Spayed Female","3 years","Pit Bull/Boxer","Black/White",67043,30.2592327,-97.7002459
"A671704","Chloe",2015-07-15 12:16:00,"07/15/2015 12:16:00 PM","E 11Th St & Navasota St in Austin (TX)","Stray","Normal","Dog","Spayed Female","3 years","Pit Bull/Boxer","Black/White","Chloe",2016-03-25 04:13:00,"03/25/2016 04:13:00 PM","01/29/2012","Return to Owner","","Dog","Spayed Female","4 years","Pit Bull/Boxer","Black/White",365277,30.2681311,-97.7263447
"A671704","Chloe",2016-03-24 04:20:00,"03/24/2016 04:20:00 AM","812 Springdale Rd in Austin (TX)","Stray","Normal","Dog","Spayed Female","4 years","Pit Bull/Boxer","Black/White","Chloe",2016-03-25 04:13:00,"03/25/2016 04:13:00 PM","01/29/2012","Return to Owner","","Dog","Spayed Female","4 years","Pit Bull/Boxer","Black/White",1433,30.2592327,-97.7002459
"A671704","Chloe",2016-05-12 04:14:00,"05/12/2016 04:14:00 PM","Gonzales St & Mansell Ave in Austin (TX)","Stray","Normal","Dog","Spayed Female","4 years","Pit Bull/Boxer","Black/White","Chloe",2016-05-12 05:52:00,"05/12/2016 05:52:00 PM","01/29/2012","Return to Owner","","Dog","Spayed Female","4 years","Pit Bull/Boxer","Black/White",98,30.2560948,-97.699042
"A671822","*Milo",2014-01-31 01:16:00,"01/31/2014 01:16:00 PM","Austin (TX)","Public Assist","Normal","Dog","Intact Male","8 years","German Shepherd Mix","Black/Tan","*Milo",2014-02-10 11:57:00,"02/10/2014 11:57:00 AM","01/31/2006","Return to Owner","","Dog","Intact Male","8 years","German Shepherd Mix","Black/Tan",15041,30.267153,-97.7430608
"A671822","*Milo",2016-02-12 05:46:00,"02/12/2016 05:46:00 PM","Austin (TX)","Owner Surrender","Normal","Dog","Intact Male","10 years","German Shepherd Mix","Black/Tan","*Milo",2016-02-28 07:30:00,"02/28/2016 07:30:00 PM","01/31/2006","Adoption","","Dog","Neutered Male","10 years","German Shepherd Mix","Black/Tan",23144,30.267153,-97.7430608
"A671822","*Milo",2016-03-03 03:11:00,"03/03/2016 03:11:00 PM","Austin (TX)","Owner Surrender","Normal","Dog","Neutered Male","10 years","German Shepherd Mix","Black/Tan","*Milo",2016-03-15 07:06:00,"03/15/2016 07:06:00 PM","01/31/2006","Adoption","","Dog","Neutered Male","10 years","German Shepherd Mix","Black/Tan",17455,30.267153,-97.7430608
"A671822","*Milo",2016-03-18 06:37:00,"03/18/2016 06:37:00 PM","Austin (TX)","Owner Surrender","Normal","Dog","Neutered Male","10 years","German Shepherd Mix","Black/Tan","*Milo",2016-04-04 04:35:00,"04/04/2016 04:35:00 PM","01/31/2006","Adoption","","Dog","Neutered Male","10 years","German Shepherd Mix","Black/Tan",24358,30.267153,-97.7430608
"A671822","*Milo",2016-04-05 05:46:00,"04/05/2016 05:46:00 PM","Austin (TX)","Owner Surrender","Aged","Dog","Neutered Male","10 years","German Shepherd Mix","Black/Tan","*Milo",2016-10-11 10:03:00,"10/11/2016 10:03:00 AM","01/31/2006","Adoption","Foster","Dog","Neutered Male","10 years","German Shepherd Mix","Black/Tan",272417,30.267153,-97.7430608
"A673271","Tera",2014-02-21 11:54:00,"02/21/2014 11:54:00 AM","Austin (TX)","Owner Surrender","Normal","Dog","Intact Female","7 months","German Shepherd/Labrador Retriever","Black/Brown","Tera",2014-03-09 04:37:00,"03/09/2014 04:37:00 PM","07/21/2013","Adoption","","Dog","Spayed Female","7 months","German Shepherd/Labrador Retriever","Black/Brown",22543,30.267153,-97.7430608
"A673271","Tera",2015-05-01 04:44:00,"05/01/2015 04:44:00 PM","5510 South Pleasent Valley in Austin (TX)","Stray","Normal","Dog","Spayed Female","1 year","German Shepherd/Labrador Retriever","Black/Brown","Tera",2015-05-01 06:26:00,"05/01/2015 06:26:00 PM","07/21/2013","Return to Owner","","Dog","Spayed Female","1 year","German Shepherd/Labrador Retriever","Black/Brown",102,30.1919,-97.744959
"A673271","Tera",2016-03-20 06:01:00,"03/20/2016 06:01:00 PM","Austin (TX)","Owner Surrender","Normal","Dog","Spayed Female","2 years","German Shepherd/Labrador Retriever","Black/Brown","Tera",2016-04-16 06:37:00,"04/16/2016 06:37:00 PM","07/21/2013","Adoption","Foster","Dog","Spayed Female","2 years","German Shepherd/Labrador Retriever","Black/Brown",38916,30.267153,-97.7430608
"A673271","Tera",2016-04-21 01:42:00,"04/21/2016 01:42:00 PM","Outside Jurisdiction","Owner Surrender","Normal","Dog","Spayed Female","2 years","German Shepherd/Labrador Retriever","Black/Brown","Tera",2016-05-29 02:15:00,"05/29/2016 02:15:00 PM","07/21/2013","Adoption","","Dog","Spayed Female","2 years","German Shepherd/Labrador Retriever","Black/Brown",54753,30.267153,-97.7430608
"A673271","Tera",2016-06-06 12:02:00,"06/06/2016 12:02:00 PM","Outside Jurisdiction","Owner Surrender","Normal","Dog","Spayed Female","2 years","German Shepherd/Labrador Retriever","Black/Brown","Tera",2016-09-23 09:16:00,"09/23/2016 09:16:00 AM","07/21/2013","Adoption","Foster","Dog","Spayed Female","3 years","German Shepherd/Labrador Retriever","Black/Brown",156794,30.267153,-97.7430608
"A676423","Tuffy",2015-04-22 08:30:00,"04/22/2015 08:30:00 AM","2109 Trede Drive in Austin (TX)","Stray","Injured","Dog","Intact Male","3 years","Boxer Mix","Black/White","Tuffy",2015-04-29 07:33:00,"04/29/2015 07:33:00 PM","04/09/2012","Return to Owner","","Dog","Neutered Male","3 years","Boxer Mix","Black/White",10023,30.197438,-97.811719
"A676423","Tuffy",2015-07-11 01:31:00,"07/11/2015 01:31:00 AM","Fancy Gap & Manassas in Austin (TX)","Stray","Injured","Dog","Neutered Male","3 years","Boxer Mix","Black/White","Tuffy",2015-08-05 01:50:00,"08/05/2015 01:50:00 PM","04/09/2012","Transfer","Partner","Dog","Neutered Male","3 years","Boxer Mix","Black/White",36019,30.267153,-97.7430608
"A676423","Tuffy",2016-05-15 09:48:00,"05/15/2016 09:48:00 PM","Ben White in Austin (TX)","Public Assist","Normal","Dog","Neutered Male","4 years","Boxer Mix","Black/White","Tuffy",2016-05-18 11:34:00,"05/18/2016 11:34:00 AM","04/09/2012","Return to Owner","","Dog","Neutered Male","4 years","Boxer Mix","Black/White",4426,30.2137755,-97.7203996
"A676423","Tuffy",2016-08-11 08:30:00,"08/11/2016 08:30:00 AM","4400 E Ben White in Austin (TX)","Public Assist","Normal","Dog","Neutered Male","4 years","Boxer Mix","Black/White","Tuffy",2016-08-18 12:41:00,"08/18/2016 12:41:00 PM","04/09/2012","Return to Owner","","Dog","Neutered Male","4 years","Boxer Mix","Black/White",10331,30.2159582,-97.7341558
"A676423","Tuffy",2016-08-21 11:50:00,"08/21/2016 11:50:00 AM","6114 S 1St St in Austin (TX)","Stray","Normal","Dog","Neutered Male","4 years","Boxer Mix","Black/White","Tuffy",2016-08-26 12:21:00,"08/26/2016 12:21:00 PM","04/09/2012","Return to Owner","","Dog","Neutered Male","4 years","Boxer Mix","Black/White",7231,30.2024427,-97.7850847
"A676423","Tuffy",2016-09-14 11:42:00,"09/14/2016 11:42:00 AM","I 35 And 6Th St in Austin (TX)","Stray","Injured","Dog","Neutered Male","4 years","Boxer Mix","Black/White","Tuffy",2016-09-15 01:52:00,"09/15/2016 01:52:00 PM","04/09/2012","Return to Owner","","Dog","Neutered Male","4 years","Boxer Mix","Black/White",850,30.265884,-97.7350266
"A677853","*Otto",2014-04-30 11:29:00,"04/30/2014 11:29:00 AM","6575 Decker Ln in Austin (TX)","Stray","Normal","Dog","Intact Male","1 year","Pit Bull/Catahoula","White/Brown","*Otto",2014-06-17 07:12:00,"06/17/2014 07:12:00 PM","10/30/2012","Adoption","","Dog","Neutered Male","1 year","Pit Bull/Catahoula","White/Brown",68863,30.2898137,-97.6272164
"A677853","*Otto",2014-06-27 02:30:00,"06/27/2014 02:30:00 PM","Cedar Park (TX)","Owner Surrender","Normal","Dog","Neutered Male","1 year","Pit Bull/Catahoula","White/Brown","*Otto",2014-08-07 12:27:00,"08/07/2014 12:27:00 PM","10/30/2012","Adoption","","Dog","Neutered Male","1 year","Pit Bull/Catahoula","White/Brown",59637,30.505198,-97.8202888
"A677853","*Otto",2014-10-02 11:27:00,"10/02/2014 11:27:00 AM","Manor (TX)","Stray","Normal","Dog","Neutered Male","1 year","Pit Bull/Catahoula","White/Brown","*Otto",2014-10-02 12:27:00,"10/02/2014 12:27:00 PM","10/30/2012","Return to Owner","","Dog","Neutered Male","1 year","Pit Bull/Catahoula","White/Brown",60,30.3407629,-97.5569456
"A677853","*Otto",2014-11-15 05:47:00,"11/15/2014 05:47:00 PM","12315 Mc Curry in Travis (TX)","Stray","Normal","Dog","Neutered Male","2 years","Pit Bull/Catahoula","White/Brown","*Otto",2014-11-15 05:59:00,"11/15/2014 05:59:00 PM","10/30/2012","Return to Owner","","Dog","Neutered Male","2 years","Pit Bull/Catahoula","White/Brown",12,30.4331169,-97.4787984
"A677853","*Otto",2015-07-01 04:40:00,"07/01/2015 04:40:00 PM","15500 Sun Light Near Way in Travis (TX)","Stray","Normal","Dog","Neutered Male","2 years","Pit Bull/Catahoula","White/Brown","*Otto",2015-07-01 05:34:00,"07/01/2015 05:34:00 PM","10/30/2012","Return to Owner","","Dog","Neutered Male","2 years","Pit Bull/Catahoula","White/Brown",54,30.4205309,-97.6031146
"A681167","Rosie",2014-06-13 02:27:00,"06/13/2014 02:27:00 PM","E 6Th And Comal in Austin (TX)","Stray","Normal","Dog","Spayed Female","2 years","German Shepherd Mix","Tricolor","Rosie",2014-06-13 05:44:00,"06/13/2014 05:44:00 PM","06/13/2012","Return to Owner","","Dog","Spayed Female","2 years","German Shepherd Mix","Tricolor",197,30.2630506,-97.7265486
"A681167","Rosie",2015-01-07 03:56:00,"01/07/2015 03:56:00 PM","5011 E Cesar Chavez St in Austin (TX)","Stray","Normal","Dog","Spayed Female","2 years","German Shepherd Mix","Tricolor","Rosie",2015-01-07 04:30:00,"01/07/2015 04:30:00 PM","06/13/2012","Return to Owner","","Dog","Spayed Female","2 years","German Shepherd Mix","Tricolor",34,30.251091,-97.6995669
"A681167","Rosie",2015-01-22 12:01:00,"01/22/2015 12:01:00 PM","E Cesar Chavez St & N Pleasant Valley Rd in Austin (TX)","Stray","Normal","Dog","Spayed Female","2 years","German Shepherd Mix","Tricolor","Rosie",2015-02-01 06:18:00,"02/01/2015 06:18:00 PM","06/13/2012","Adoption","","Dog","Spayed Female","2 years","German Shepherd Mix","Tricolor",14057,30.2529803,-97.7128119
"A681167","Rosie",2015-02-06 06:23:00,"02/06/2015 06:23:00 PM","Hays (TX)","Owner Surrender","Normal","Dog","Spayed Female","2 years","German Shepherd Mix","Tricolor","Rosie",2015-02-08 06:48:00,"02/08/2015 06:48:00 PM","06/13/2012","Adoption","","Dog","Spayed Female","2 years","German Shepherd Mix","Tricolor",2905,30.1227118,-97.8722281
"A681167","Rosie",2015-02-09 05:33:00,"02/09/2015 05:33:00 PM","Cedar Park (TX)","Owner Surrender","Normal","Dog","Spayed Female","2 years","German Shepherd Mix","Tricolor","Rosie",2015-02-13 04:33:00,"02/13/2015 04:33:00 PM","06/13/2012","Adoption","","Dog","Spayed Female","2 years","German Shepherd Mix","Tricolor",5700,30.505198,-97.8202888
"A681769","Pixie",2014-06-20 11:06:00,"06/20/2014 11:06:00 AM","Ken St &  N Lamar Blvd in Austin (TX)","Stray","Normal","Dog","Intact Female","6 years","American Pit Bull Terrier Mix","White","Pixie",2014-09-25 06:41:00,"09/25/2014 06:41:00 PM","06/20/2008","Adoption","","Dog","Spayed Female","6 years","American Pit Bull Terrier Mix","White",139415,30.3701585,-97.6930045
"A681769","Pixie",2014-09-26 03:19:00,"09/26/2014 03:19:00 PM","Outside Jurisdiction","Owner Surrender","Normal","Dog","Spayed Female","6 years","American Pit Bull Terrier Mix","White","Pixie",2014-11-13 03:55:00,"11/13/2014 03:55:00 PM","06/20/2008","Adoption","","Dog","Spayed Female","6 years","American Pit Bull Terrier Mix","White",69216,30.267153,-97.7430608
"A681769","Pixie",2014-12-01 01:54:00,"12/01/2014 01:54:00 PM","Austin (TX)","Owner Surrender","Normal","Dog","Spayed Female","6 years","American Pit Bull Terrier Mix","White","Pixie",2015-02-01 03:32:00,"02/01/2015 03:32:00 PM","06/20/2008","Adoption","","Dog","Spayed Female","6 years","American Pit Bull Terrier Mix","White",89378,30.267153,-97.7430608
"A681769","Pixie",2015-09-29 12:26:00,"09/29/2015 12:26:00 PM","Austin (TX)","Owner Surrender","Normal","Dog","Spayed Female","7 years","American Pit Bull Terrier Mix","White","Pixie",2015-12-06 04:26:00,"12/06/2015 04:26:00 PM","06/20/2008","Adoption","","Dog","Spayed Female","7 years","American Pit Bull Terrier Mix","White",97500,30.267153,-97.7430608
"A683108","Clyde",2014-07-07 01:02:00,"07/07/2014 01:02:00 PM","6801 S I H 35 in Austin (TX)","Public Assist","Normal","Dog","Neutered Male","7 years","Australian Cattle Dog/Akita","Brown/White","Clyde",2014-07-08 11:26:00,"07/08/2014 11:26:00 AM","07/08/2007","Return to Owner","","Dog","Neutered Male","7 years","Australian Cattle Dog/Akita","Brown/White",2064,30.1876985,-97.7708607
"A683108","Clyde",2014-07-29 05:52:00,"07/29/2014 05:52:00 PM","1941 E. William Cannon in Austin (TX)","Stray","Normal","Dog","Neutered Male","7 years","Australian Cattle Dog/Akita","Brown/White","Clyde",2014-07-30 01:55:00,"07/30/2014 01:55:00 PM","07/08/2007","Return to Owner","","Dog","Neutered Male","7 years","Australian Cattle Dog/Akita","Brown/White",1203,30.1874748,-97.7643615
"A683108","Clyde",2014-10-07 12:22:00,"10/07/2014 12:22:00 PM","4715 S Congress in Austin (TX)","Public Assist","Normal","Dog","Neutered Male","7 years","Australian Cattle Dog/Akita","Brown/White","Clyde",2014-10-20 01:01:00,"10/20/2014 01:01:00 PM","07/08/2007","Return to Owner","","Dog","Neutered Male","7 years","Australian Cattle Dog/Akita","Brown/White",18039,30.2144717,-97.7686885
"A683108","Clyde",2014-10-24 07:21:00,"10/24/2014 07:21:00 AM","Ih 35 & William Cannon in Austin (TX)","Stray","Normal","Dog","Neutered Male","7 years","Australian Cattle Dog/Akita","Brown/White","Clyde",2015-04-19 04:42:00,"04/19/2015 04:42:00 PM","07/08/2007","Transfer","Partner","Dog","Neutered Male","7 years","Australian Cattle Dog/Akita","Brown/White",254721,30.1906138,-97.7709337
"A683108","Clyde",2015-01-21 03:17:00,"01/21/2015 03:17:00 PM","11940 Manchaca Rd in Austin (TX)","Stray","Normal","Dog","Neutered Male","7 years","Australian Cattle Dog/Akita","Brown/White","Clyde",2015-04-19 04:42:00,"04/19/2015 04:42:00 PM","07/08/2007","Transfer","Partner","Dog","Neutered Male","7 years","Australian Cattle Dog/Akita","Brown/White",126745,30.1455135,-97.8338761
"A683108","Clyde",2015-07-15 11:52:00,"07/15/2015 11:52:00 AM","Austin (TX)","Public Assist","Normal","Dog","Neutered Male","8 years","Australian Cattle Dog/Akita","Brown/White","Clyde",2015-07-27 11:28:00,"07/27/2015 11:28:00 AM","07/08/2007","Return to Owner","","Dog","Neutered Male","8 years","Australian Cattle Dog/Akita","Brown/White",17256,30.267153,-97.7430608
"A683108","Clyde",2015-09-07 02:01:00,"09/07/2015 02:01:00 PM","South First And Barton Springs in Austin (TX)","Stray","Normal","Dog","Neutered Male","8 years","Australian Cattle Dog/Akita","Brown/White","Clyde",2015-09-10 12:02:00,"09/10/2015 12:02:00 PM","07/08/2007","Return to Owner","","Dog","Neutered Male","8 years","Australian Cattle Dog/Akita","Brown/White",4921,30.2583913,-97.7500919
"A687360","Nila",2014-09-03 07:13:00,"09/03/2014 07:13:00 PM","8515 S Ih35 in Austin (TX)","Stray","Normal","Dog","Intact Female","1 year","Pit Bull Mix","Brown/White","Nila",2014-09-10 06:11:00,"09/10/2014 06:11:00 PM","09/03/2013","Return to Owner","","Dog","Spayed Female","1 year","Pit Bull Mix","Brown/White",10018,30.1686894,-97.7802278
"A687360","Nila",2014-10-03 11:01:00,"10/03/2014 11:01:00 AM","7318 Onion Creek Dr in Austin (TX)","Stray","Normal","Dog","Spayed Female","1 year","Pit Bull Mix","Brown/White","Nila",2014-10-24 11:01:00,"10/24/2014 11:01:00 AM","09/03/2013","Return to Owner","","Dog","Spayed Female","1 year","Pit Bull Mix","Brown/White",30240,30.168838,-97.747534
"A687360","Nila",2014-10-23 11:57:00,"10/23/2014 11:57:00 AM","7500 S Pleasant Valley in Austin (TX)","Stray","Normal","Dog","Spayed Female","1 year","Pit Bull Mix","Brown/White","Nila",2014-10-24 11:01:00,"10/24/2014 11:01:00 AM","09/03/2013","Return to Owner","","Dog","Spayed Female","1 year","Pit Bull Mix","Brown/White",1384,30.1708512,-97.7562376
"A687360","Nila",2014-10-27 03:59:00,"10/27/2014 03:59:00 PM","5721 Honeybee in Austin (TX)","Stray","Normal","Dog","Spayed Female","1 year","Pit Bull Mix","Brown/White","Nila",2014-11-12 11:41:00,"11/12/2014 11:41:00 AM","09/03/2013","Return to Owner","","Dog","Spayed Female","1 year","Pit Bull Mix","Brown/White",23562,30.169528,-97.747107
"A687360","Nila",2016-01-27 06:54:00,"01/27/2016 06:54:00 PM","14000 Ptarmigan Dr And And Braker Ln in Austin (TX)","Stray","Normal","Dog","Spayed Female","2 years","Pit Bull Mix","Brown/White","Nila",2016-03-12 12:26:00,"03/12/2016 12:26:00 PM","09/03/2013","Adoption","","Dog","Spayed Female","2 years","Pit Bull Mix","Brown/White",65132,30.3903133,-97.7032684
"A688610","*Nora",2014-09-21 12:52:00,"09/21/2014 12:52:00 PM","Manchaca And Red St in Austin (TX)","Stray","Normal","Dog","Intact Female","1 year","Border Collie Mix","Black/White","*Nora",2014-09-23 05:53:00,"09/23/2014 05:53:00 PM","09/21/2013","Return to Owner","","Dog","Spayed Female","1 year","Border Collie Mix","Black/White",2461,30.228255,-97.7894151
"A688610","*Nora",2015-05-28 10:47:00,"05/28/2015 10:47:00 AM","W Ben White And Banister Ln in Austin (TX)","Stray","Normal","Dog","Spayed Female","1 year","Border Collie Mix","Black/White","*Nora",2015-05-30 02:57:00,"05/30/2015 02:57:00 PM","09/21/2013","Return to Owner","","Dog","Spayed Female","1 year","Border Collie Mix","Black/White",2410,30.228112,-97.779121
"A688610","*Nora",2015-06-15 07:16:00,"06/15/2015 07:16:00 AM","Banister/ Ben White in Austin (TX)","Stray","Normal","Dog","Spayed Female","1 year","Border Collie Mix","Black/White","*Nora",2015-06-20 02:47:00,"06/20/2015 02:47:00 PM","09/21/2013","Return to Owner","","Dog","Spayed Female","1 year","Border Collie Mix","Black/White",6931,30.228599,-97.778699
"A688610","*Nora",2015-06-21 08:36:00,"06/21/2015 08:36:00 AM","4434 Frontier in Austin (TX)","Stray","Normal","Dog","Spayed Female","1 year","Border Collie Mix","Black/White","*Nora",2016-02-23 01:18:00,"02/23/2016 01:18:00 PM","09/21/2013","Adoption","","Dog","Spayed Female","2 years","Border Collie Mix","Black/White",355302,30.2314364,-97.7957763
"A688610","*Nora",2016-02-06 02:13:00,"02/06/2016 02:13:00 PM","4304 Hank Ave in Austin (TX)","Owner Surrender","Normal","Dog","Spayed Female","2 years","Border Collie Mix","Black/White","*Nora",2016-02-23 01:18:00,"02/23/2016 01:18:00 PM","09/21/2013","Adoption","","Dog","Spayed Female","2 years","Border Collie Mix","Black/White",24425,30.2258,-97.779514
"A688610","*Nora",2016-05-02 02:56:00,"05/02/2016 02:56:00 PM","Outside Jurisdiction","Owner Surrender","Normal","Dog","Spayed Female","2 years","Border Collie Mix","Black/White","*Nora",2016-05-09 01:15:00,"05/09/2016 01:15:00 PM","09/21/2013","Transfer","Partner","Dog","Spayed Female","2 years","Border Collie Mix","Black/White",9979,30.267153,-97.7430608
"A689279","Wren",2014-10-01 04:08:00,"10/01/2014 04:08:00 PM","5603 Tura Ln in Austin (TX)","Stray","Normal","Dog","Intact Female","1 year","Rat Terrier Mix","White/Brown","Wren",2014-10-05 05:24:00,"10/05/2014 05:24:00 PM","04/01/2013","Adoption","","Dog","Spayed Female","1 year","Rat Terrier Mix","White/Brown",5836,30.26771,-97.681185
"A689279","Wren",2015-07-26 12:27:00,"07/26/2015 12:27:00 PM","505 Swanee Dr #106 in Austin (TX)","Public Assist","Normal","Dog","Spayed Female","2 years","Rat Terrier Mix","White/Brown","Wren",2015-08-05 04:29:00,"08/05/2015 04:29:00 PM","04/01/2013","Return to Owner","","Dog","Spayed Female","2 years","Rat Terrier Mix","White/Brown",13922,30.335038,-97.715266
"A689279","Wren",2016-03-10 12:40:00,"03/10/2016 12:40:00 PM","7123 N Lamar Blvd in Austin (TX)","Stray","Normal","Dog","Spayed Female","2 years","Rat Terrier Mix","White/Brown","Wren",2016-03-11 04:36:00,"03/11/2016 04:36:00 PM","04/01/2013","Adoption","","Dog","Spayed Female","2 years","Rat Terrier Mix","White/Brown",956,30.3387594,-97.7178491
"A689279","Wren",2016-03-14 02:06:00,"03/14/2016 02:06:00 PM","Austin (TX)","Owner Surrender","Normal","Dog","Spayed Female","2 years","Rat Terrier Mix","White/Brown","Wren",2016-03-14 03:36:00,"03/14/2016 03:36:00 PM","04/01/2013","Return to Owner","","Dog","Spayed Female","2 years","Rat Terrier Mix","White/Brown",90,30.267153,-97.7430608
"A689279","Wren",2016-03-18 02:28:00,"03/18/2016 02:28:00 PM","W 38Th St in Austin (TX)","Stray","Normal","Dog","Spayed Female","2 years","Rat Terrier Mix","White/Brown","Wren",2016-03-21 02:13:00,"03/21/2016 02:13:00 PM","04/01/2013","Transfer","Partner","Dog","Spayed Female","2 years","Rat Terrier Mix","White/Brown",4305,30.3058678,-97.7445794
"A690234","Hershey",2014-10-16 04:51:00,"10/16/2014 04:51:00 PM","Tillery St And Springdale in Austin (TX)","Stray","Normal","Dog","Intact Male","10 months","Chihuahua Shorthair/Dachshund","Chocolate/Tan","Hershey",2014-10-18 06:40:00,"10/18/2014 06:40:00 PM","11/17/2013","Return to Owner","","Dog","Neutered Male","11 months","Chihuahua Shorthair/Dachshund","Chocolate/Tan",2989,30.269578,-97.7005339
"A690234","Hershey",2015-01-06 02:38:00,"01/06/2015 02:38:00 PM","E 7Th St & Gunter St in Austin (TX)","Stray","Normal","Dog","Neutered Male","1 year","Chihuahua Shorthair/Dachshund","Chocolate/Tan","Hershey",2015-01-06 05:28:00,"01/06/2015 05:28:00 PM","11/17/2013","Return to Owner","","Dog","Neutered Male","1 year","Chihuahua Shorthair/Dachshund","Chocolate/Tan",170,30.2569741,-97.7030894
"A690234","Hershey",2015-01-09 12:22:00,"01/09/2015 12:22:00 PM","Gonzales And Gunter in Austin (TX)","Stray","Normal","Dog","Neutered Male","1 year","Chihuahua Shorthair/Dachshund","Chocolate/Tan","Hershey",2015-01-09 12:55:00,"01/09/2015 12:55:00 PM","11/17/2013","Return to Owner","","Dog","Neutered Male","1 year","Chihuahua Shorthair/Dachshund","Chocolate/Tan",33,30.2578299,-97.7025735
"A690234","Hershey",2015-01-31 11:25:00,"01/31/2015 11:25:00 AM","Springdale And Gonzales St in Austin (TX)","Stray","Normal","Dog","Neutered Male","1 year","Chihuahua Shorthair/Dachshund","Chocolate/Tan","Hershey",2015-02-01 06:15:00,"02/01/2015 06:15:00 PM","11/17/2013","Return to Owner","","Dog","Neutered Male","1 year","Chihuahua Shorthair/Dachshund","Chocolate/Tan",1130,30.257222,-97.700908
"A690234","Hershey",2016-05-22 04:20:00,"05/22/2016 04:20:00 PM","3511 Gonzales in Austin (TX)","Stray","Normal","Dog","Neutered Male","2 years","Chihuahua Shorthair/Dachshund","Chocolate/Tan","Hershey",2016-05-23 05:30:00,"05/23/2016 05:30:00 PM","11/17/2013","Return to Owner","","Dog","Neutered Male","2 years","Chihuahua Shorthair/Dachshund","Chocolate/Tan",1510,30.257431,-97.702248
"A691218","Skama",2014-10-31 05:33:00,"10/31/2014 05:33:00 PM","3603 South Ridge Dr in Austin (TX)","Stray","Normal","Dog","Intact Male","1 year","American Bulldog","White/Black","Skama",2014-11-01 02:36:00,"11/01/2014 02:36:00 PM","05/01/2013","Return to Owner","","Dog","Intact Male","1 year","American Bulldog","White/Black",1263,30.23474,-97.7769008
"A691218","Skama",2014-11-15 02:52:00,"11/15/2014 02:52:00 PM","3300 Dolphin Drive in Austin (TX)","Stray","Normal","Dog","Intact Male","1 year","American Bulldog","White/Black","Skama",2014-11-16 06:36:00,"11/16/2014 06:36:00 PM","05/01/2013","Return to Owner","","Dog","Neutered Male","1 year","American Bulldog","White/Black",1664,30.236906,-97.774829
"A691218","Skama",2014-11-24 05:29:00,"11/24/2014 05:29:00 PM","1502 Summer Stone Dr in Austin (TX)","Stray","Normal","Dog","Neutered Male","1 year","American Bulldog","White/Black","Skama",2014-11-26 03:12:00,"11/26/2014 03:12:00 PM","05/01/2013","Return to Owner","","Dog","Neutered Male","1 year","American Bulldog","White/Black",2743,30.2306688,-97.7802356
"A691218","Skama",2015-01-12 11:03:00,"01/12/2015 11:03:00 AM","3603 Southridge Dr in Austin (TX)","Stray","Normal","Dog","Neutered Male","1 year","American Bulldog","White/Black","Skama",2015-02-21 06:34:00,"02/21/2015 06:34:00 PM","05/01/2013","Adoption","","Dog","Neutered Male","1 year","American Bulldog","White/Black",57331,30.23474,-97.7769008
"A691218","Skama",2015-01-28 03:50:00,"01/28/2015 03:50:00 PM","Valleyridge Dr & S Oak Dr in Austin (TX)","Stray","Normal","Dog","Neutered Male","1 year","American Bulldog","White/Black","Skama",2015-02-21 06:34:00,"02/21/2015 06:34:00 PM","05/01/2013","Adoption","","Dog","Neutered Male","1 year","American Bulldog","White/Black",34724,30.236601,-97.7765493
"A694501","Penelope",2014-12-29 02:27:00,"12/29/2014 02:27:00 PM","Finch Trl And Norfolk in Austin (TX)","Stray","Normal","Dog","Intact Female","5 months","Labrador Retriever Mix","Black/White","Penelope",2015-01-01 05:07:00,"01/01/2015 05:07:00 PM","06/30/2014","Return to Owner","","Dog","Spayed Female","6 months","Labrador Retriever Mix","Black/White",4480,30.2005471,-97.8258126
"A694501","Penelope",2015-02-02 12:47:00,"02/02/2015 12:47:00 PM","Garwood And N Pleasant Valley in Austin (TX)","Stray","Normal","Dog","Spayed Female","7 months","Labrador Retriever Mix","Black/White","Penelope",2015-02-07 03:08:00,"02/07/2015 03:08:00 PM","06/30/2014","Return to Owner","","Dog","Spayed Female","7 months","Labrador Retriever Mix","Black/White",6621,30.261112,-97.709098
"A694501","Penelope",2015-02-07 01:53:00,"02/07/2015 01:53:00 PM","2805 Norfolk Drive in Austin (TX)","Stray","Normal","Dog","Spayed Female","7 months","Labrador Retriever Mix","Black/White","Penelope",2015-02-07 03:08:00,"02/07/2015 03:08:00 PM","06/30/2014","Return to Owner","","Dog","Spayed Female","7 months","Labrador Retriever Mix","Black/White",75,30.200608,-97.82302
"A694501","Penelope",2015-05-12 01:11:00,"05/12/2015 01:11:00 AM","2816 Norfolk Dr in Austin (TX)","Stray","Normal","Dog","Spayed Female","10 months","Labrador Retriever Mix","Black/White","Penelope",2015-05-12 04:23:00,"05/12/2015 04:23:00 PM","06/30/2014","Return to Owner","","Dog","Spayed Female","10 months","Labrador Retriever Mix","Black/White",192,30.201594,-97.823986
"A694501","Penelope",2015-10-19 04:32:00,"10/19/2015 04:32:00 PM","Gettysburg Dr And Seminary Ridge Dr in Austin (TX)","Stray","Normal","Dog","Spayed Female","1 year","Labrador Retriever Mix","Black/White","Penelope",2015-10-19 05:28:00,"10/19/2015 05:28:00 PM","06/30/2014","Return to Owner","","Dog","Spayed Female","1 year","Labrador Retriever Mix","Black/White",56,30.1947731,-97.8220282
"A694501","Penelope",2015-11-24 10:02:00,"11/24/2015 10:02:00 PM","Goldbridge And Norfolk in Austin (TX)","Stray","Normal","Dog","Spayed Female","1 year","Labrador Retriever Mix","Black/White","Penelope",2015-12-01 04:28:00,"12/01/2015 04:28:00 PM","06/30/2014","Return to Owner","","Dog","Spayed Female","1 year","Labrador Retriever Mix","Black/White",9746,30.2011746,-97.8252091
"A694501","Penelope",2015-12-19 03:53:00,"12/19/2015 03:53:00 PM","8106 Brodie Ln in Austin (TX)","Stray","Normal","Dog","Spayed Female","1 year","Labrador Retriever Mix","Black/White","Penelope",2015-12-21 04:31:00,"12/21/2015 04:31:00 PM","06/30/2014","Return to Owner","","Dog","Spayed Female","1 year","Labrador Retriever Mix","Black/White",2918,30.2023751,-97.8385068
"A694501","Penelope",2016-01-18 07:08:00,"01/18/2016 07:08:00 AM","Inridge Dr/ Westgate in Austin (TX)","Stray","Normal","Dog","Spayed Female","1 year","Labrador Retriever Mix","Black/White","Penelope",2016-01-30 05:34:00,"01/30/2016 05:34:00 PM","06/30/2014","Adoption","","Dog","Spayed Female","1 year","Labrador Retriever Mix","Black/White",17186,30.2022945,-97.8224283
"A694611","Roscoe",2014-12-31 03:34:00,"12/31/2014 03:34:00 PM","4411 Hank Ave in Austin (TX)","Stray","Normal","Dog","Intact Male","2 years","Pit Bull Mix","White/Blue","Roscoe",2015-01-14 04:40:00,"01/14/2015 04:40:00 PM","12/31/2012","Return to Owner","","Dog","Neutered Male","2 years","Pit Bull Mix","White/Blue",20226,30.224047,-97.779855
"A694611","Roscoe",2015-02-13 07:04:00,"02/13/2015 07:04:00 AM","Redd / Manchaca in Austin (TX)","Stray","Normal","Dog","Neutered Male","2 years","Pit Bull Mix","White/Blue","Roscoe",2015-02-16 03:15:00,"02/16/2015 03:15:00 PM","12/31/2012","Return to Owner","","Dog","Neutered Male","2 years","Pit Bull Mix","White/Blue",4091,30.2241112,-97.7835413
"A694611","Roscoe",2015-05-22 07:26:00,"05/22/2015 07:26:00 AM","Redd St & Jinx Ave in Austin (TX)","Stray","Normal","Dog","Neutered Male","2 years","Pit Bull Mix","White/Blue","Roscoe",2015-05-24 02:47:00,"05/24/2015 02:47:00 PM","12/31/2012","Return to Owner","","Dog","Neutered Male","2 years","Pit Bull Mix","White/Blue",2601,30.2223439,-97.7799005
"A694611","Roscoe",2015-08-10 11:34:00,"08/10/2015 11:34:00 AM","4309 Banister/Casey in Austin (TX)","Stray","Normal","Dog","Neutered Male","2 years","Pit Bull Mix","White/Blue","Roscoe",2015-09-26 04:53:00,"09/26/2015 04:53:00 PM","12/31/2012","Return to Owner","","Dog","Neutered Male","2 years","Pit Bull Mix","White/Blue",67279,30.225706,-97.780674
"A694611","Roscoe",2015-11-09 01:23:00,"11/09/2015 01:23:00 PM","Redd And Banister in Austin (TX)","Stray","Normal","Dog","Neutered Male","2 years","Pit Bull Mix","White/Blue","Roscoe",2016-10-14 01:18:00,"10/14/2016 01:18:00 PM","12/31/2012","Adoption","Foster","Dog","Neutered Male","3 years","Pit Bull Mix","White/Blue",489535,30.2234577,-97.7821987
"A695857","Cherry",2015-01-24 03:03:00,"01/24/2015 03:03:00 PM","5309 E Riverside Dr in Austin (TX)","Stray","Normal","Dog","Intact Female","1 year","Labrador Retriever Mix","Black","Cherry",2015-01-25 06:36:00,"01/25/2015 06:36:00 PM","07/24/2013","Return to Owner","","Dog","Spayed Female","1 year","Labrador Retriever Mix","Black",1653,30.2292939,-97.7132427
"A695857","Cherry",2015-05-02 03:47:00,"05/02/2015 03:47:00 PM","Montopolis & Fairway in Austin (TX)","Stray","Normal","Dog","Spayed Female","1 year","Labrador Retriever Mix","Black","Cherry",2015-05-02 05:24:00,"05/02/2015 05:24:00 PM","07/24/2013","Return to Owner","","Dog","Spayed Female","1 year","Labrador Retriever Mix","Black",97,30.2280101,-97.7014946
"A695857","Cherry",2015-12-21 04:01:00,"12/21/2015 04:01:00 PM","2901 Montopolis Dr in Austin (TX)","Stray","Normal","Dog","Spayed Female","2 years","Labrador Retriever Mix","Black","Cherry",2015-12-21 06:17:00,"12/21/2015 06:17:00 PM","07/24/2013","Return to Owner","","Dog","Spayed Female","2 years","Labrador Retriever Mix","Black",136,30.2143501,-97.7096916
"A695857","Cherry",2016-01-19 01:21:00,"01/19/2016 01:21:00 PM","1101 Grove Blvd in Austin (TX)","Stray","Normal","Dog","Spayed Female","2 years","Labrador Retriever Mix","Black","Cherry",2016-01-19 06:09:00,"01/19/2016 06:09:00 PM","07/24/2013","Return to Owner","","Dog","Spayed Female","2 years","Labrador Retriever Mix","Black",288,30.2356879,-97.7030084
"A695857","Cherry",2016-03-07 10:59:00,"03/07/2016 10:59:00 AM","2500 Montopolis Dr in Austin (TX)","Stray","Normal","Dog","Spayed Female","2 years","Labrador Retriever Mix","Black","Cherry",2016-03-07 11:35:00,"03/07/2016 11:35:00 AM","07/24/2013","Return to Owner","","Dog","Spayed Female","2 years","Labrador Retriever Mix","Black",36,30.220152,-97.708415
"A695857","Cherry",2016-04-28 08:03:00,"04/28/2016 08:03:00 AM","Montopolis/ Riverside Dr in Austin (TX)","Stray","Normal","Dog","Spayed Female","2 years","Labrador Retriever Mix","Black","Cherry",2016-04-29 11:11:00,"04/29/2016 11:11:00 AM","07/24/2013","Return to Owner","","Dog","Spayed Female","2 years","Labrador Retriever Mix","Black",1628,30.2230526,-97.6991279
"A698638","Pravesa",2015-03-15 12:59:00,"03/15/2015 12:59:00 PM","Alum Rock Drive/Broad Brook in Austin (TX)","Stray","Normal","Dog","Spayed Female","2 years","Beagle/Vizsla","Brown/White","Pravesa",2015-03-18 12:34:00,"03/18/2015 12:34:00 PM","03/15/2013","Return to Owner","","Dog","Spayed Female","2 years","Beagle/Vizsla","Brown/White",4295,30.267153,-97.7430608
"A698638","Pravesa",2015-04-16 07:04:00,"04/16/2015 07:04:00 AM","9024 Ipswich Bay Dr in Austin (TX)","Stray","Normal","Dog","Spayed Female","2 years","Beagle/Vizsla","Brown/White","Pravesa",2015-04-20 06:06:00,"04/20/2015 06:06:00 PM","03/15/2013","Return to Owner","","Dog","Spayed Female","2 years","Beagle/Vizsla","Brown/White",5702,30.1498574,-97.749012
"A698638","Pravesa",2015-05-22 08:16:00,"05/22/2015 08:16:00 AM","Panadera in Austin (TX)","Stray","Normal","Dog","Spayed Female","2 years","Beagle/Vizsla","Brown/White","Pravesa",2015-05-26 04:56:00,"05/26/2015 04:56:00 PM","03/15/2013","Return to Owner","","Dog","Spayed Female","2 years","Beagle/Vizsla","Brown/White",5560,30.267153,-97.7430608
"A698638","Pravesa",2015-06-03 11:15:00,"06/03/2015 11:15:00 PM","4434 Frontier Trl in Austin (TX)","Stray","Normal","Dog","Spayed Female","2 years","Beagle/Vizsla","Brown/White","Pravesa",2015-06-07 02:47:00,"06/07/2015 02:47:00 PM","03/15/2013","Adoption","","Dog","Spayed Female","2 years","Beagle/Vizsla","Brown/White",5252,30.2314364,-97.7957763
"A698638","Pravesa",2015-06-07 07:01:00,"06/07/2015 07:01:00 PM","Austin (TX)","Owner Surrender","Normal","Dog","Spayed Female","2 years","Beagle/Vizsla","Brown/White","Pravesa",2015-06-10 01:01:00,"06/10/2015 01:01:00 PM","03/15/2013","Adoption","","Dog","Spayed Female","2 years","Beagle/Vizsla","Brown/White",3960,30.267153,-97.7430608
"A700121","Rocky",2015-04-08 01:54:00,"04/08/2015 01:54:00 PM","Austin (TX)","Stray","Normal","Dog","Neutered Male","5 years","German Shepherd/Labrador Retriever","Brown/Black","Rocky",2015-04-08 04:37:00,"04/08/2015 04:37:00 PM","04/08/2010","Return to Owner","","Dog","Neutered Male","5 years","German Shepherd/Labrador Retriever","Brown/Black",163,30.267153,-97.7430608
"A700121","Rocky",2015-04-16 11:13:00,"04/16/2015 11:13:00 AM","Cottonwood St And Apple Orchard Ln in Austin (TX)","Stray","Normal","Dog","Neutered Male","5 years","German Shepherd/Labrador Retriever","Brown/Black","Rocky",2015-04-20 11:12:00,"04/20/2015 11:12:00 AM","04/08/2010","Return to Owner","","Dog","Neutered Male","5 years","German Shepherd/Labrador Retriever","Brown/Black",5759,30.199717,-97.7320347
"A700121","Rocky",2015-06-05 02:55:00,"06/05/2015 02:55:00 PM","5400 Fence Row in Austin (TX)","Stray","Normal","Dog","Neutered Male","5 years","German Shepherd/Labrador Retriever","Brown/Black","Rocky",2015-06-05 04:18:00,"06/05/2015 04:18:00 PM","04/08/2010","Return to Owner","","Dog","Neutered Male","5 years","German Shepherd/Labrador Retriever","Brown/Black",83,30.197687,-97.733476
"A700121","Rocky",2016-05-09 01:52:00,"05/09/2016 01:52:00 PM","2100 Barton Springs Rd in Austin (TX)","Stray","Normal","Dog","Neutered Male","6 years","German Shepherd/Labrador Retriever","Brown/Black","Rocky",2016-05-09 07:07:00,"05/09/2016 07:07:00 PM","04/08/2010","Return to Owner","","Dog","Neutered Male","6 years","German Shepherd/Labrador Retriever","Brown/Black",315,30.2660703,-97.7691348
"A700121","Rocky",2016-05-13 11:18:00,"05/13/2016 11:18:00 AM","5400 Jimmy Clay Dr in Austin (TX)","Stray","Normal","Dog","Neutered Male","6 years","German Shepherd/Labrador Retriever","Brown/Black","Rocky",2016-05-13 12:31:00,"05/13/2016 12:31:00 PM","04/08/2010","Return to Owner","","Dog","Neutered Male","6 years","German Shepherd/Labrador Retriever","Brown/Black",73,30.1839103,-97.7319198
"A700396","Calseta",2015-04-13 10:58:00,"04/13/2015 10:58:00 AM","Elmont Dr/Pleasant Valley in Austin (TX)","Stray","Normal","Dog","Intact Female","3 years","Pit Bull Mix","Black/White","Calseta",2015-04-16 06:11:00,"04/16/2015 06:11:00 PM","04/13/2012","Return to Owner","","Dog","Spayed Female","3 years","Pit Bull Mix","Black/White",4033,30.2373128,-97.7167525
"A700396","Calseta",2015-09-14 10:57:00,"09/14/2015 10:57:00 AM","7000 Burleson Rd in Austin (TX)","Stray","Normal","Dog","Spayed Female","3 years","Pit Bull Mix","Black/White","Calseta",2015-09-16 06:31:00,"09/16/2015 06:31:00 PM","04/13/2012","Return to Owner","","Dog","Spayed Female","3 years","Pit Bull Mix","Black/White",2614,30.200169,-97.70627
"A700396","Calseta",2015-11-03 10:44:00,"11/03/2015 10:44:00 AM","4200 Smith School Rd in Austin (TX)","Stray","Normal","Dog","Spayed Female","3 years","Pit Bull Mix","Black/White","Calseta",2015-11-05 05:41:00,"11/05/2015 05:41:00 PM","04/13/2012","Return to Owner","","Dog","Spayed Female","3 years","Pit Bull Mix","Black/White",2577,30.1927372,-97.7154699
"A700396","Calseta",2015-12-07 09:11:00,"12/07/2015 09:11:00 AM","4200 Smith School Rd in Austin (TX)","Stray","Normal","Dog","Spayed Female","3 years","Pit Bull Mix","Black/White","Calseta",2015-12-08 11:45:00,"12/08/2015 11:45:00 AM","04/13/2012","Return to Owner","","Dog","Spayed Female","3 years","Pit Bull Mix","Black/White",1594,30.1927372,-97.7154699
"A700396","Calseta",2015-12-15 08:01:00,"12/15/2015 08:01:00 AM","Mc Kinney Falls/ Charles Goodwright in Austin (TX)","Stray","Injured","Dog","Spayed Female","3 years","Pit Bull Mix","Black/White","Calseta",2015-12-20 05:26:00,"12/20/2015 05:26:00 PM","04/13/2012","Return to Owner","","Dog","Spayed Female","3 years","Pit Bull Mix","Black/White",7045,30.267153,-97.7430608
"A701879","Puma",2015-05-05 04:20:00,"05/05/2015 04:20:00 PM","12117 Manchaca in Austin (TX)","Stray","Normal","Dog","Neutered Male","2 years","Miniature Poodle Mix","White","Puma",2015-05-05 06:52:00,"05/05/2015 06:52:00 PM","05/05/2013","Return to Owner","","Dog","Neutered Male","2 years","Miniature Poodle Mix","White",152,30.1414146,-97.832609
"A701879","Puma",2016-02-07 08:59:00,"02/07/2016 08:59:00 AM","7701 Pitter Pat Ln in Austin (TX)","Stray","Normal","Dog","Neutered Male","2 years","Miniature Poodle Mix","White","Puma",2016-02-08 12:29:00,"02/08/2016 12:29:00 PM","05/05/2013","Return to Owner","","Dog","Neutered Male","2 years","Miniature Poodle Mix","White",1650,30.245062,-97.913144
"A701879","Puma",2016-05-11 01:03:00,"05/11/2016 01:03:00 PM","1011 Fm 1626 in Travis (TX)","Stray","Normal","Dog","Neutered Male","3 years","Miniature Poodle Mix","White","Puma",2016-05-12 06:06:00,"05/12/2016 06:06:00 PM","05/05/2013","Return to Owner","","Dog","Neutered Male","3 years","Miniature Poodle Mix","White",1743,30.1402559,-97.8320106
"A701879","Puma",2016-05-26 02:56:00,"05/26/2016 02:56:00 PM","12117 Manchaca Rd in Austin (TX)","Stray","Normal","Dog","Neutered Male","3 years","Miniature Poodle Mix","White","Puma",2016-05-27 07:03:00,"05/27/2016 07:03:00 PM","05/05/2013","Return to Owner","","Dog","Neutered Male","3 years","Miniature Poodle Mix","White",1687,30.1414146,-97.832609
"A701879","Puma",2016-07-15 01:35:00,"07/15/2016 01:35:00 PM","12117 Manchaca in Austin (TX)","Stray","Normal","Dog","Neutered Male","3 years","Miniature Poodle Mix","White","Puma",2016-07-18 09:05:00,"07/18/2016 09:05:00 AM","05/05/2013","Return to Owner","","Dog","Neutered Male","3 years","Miniature Poodle Mix","White",4770,30.1414146,-97.832609
"A701901","Sasha",2015-05-06 09:02:00,"05/06/2015 09:02:00 AM","8200 Landsman in Austin (TX)","Stray","Normal","Dog","Spayed Female","1 year","Pit Bull Mix","Blue","Sasha",2015-05-15 07:09:00,"05/15/2015 07:09:00 PM","05/06/2014","Return to Owner","","Dog","Spayed Female","1 year","Pit Bull Mix","Blue",12847,30.235231,-97.895944
"A701901","Sasha",2015-05-19 09:30:00,"05/19/2015 09:30:00 AM","8128 N Ih 35 in Austin (TX)","Public Assist","Normal","Dog","Spayed Female","1 year","Pit Bull Mix","Blue","Sasha",2015-05-20 06:58:00,"05/20/2015 06:58:00 PM","05/06/2014","Return to Owner","","Dog","Spayed Female","1 year","Pit Bull Mix","Blue",1288,30.1756993,-97.780899
"A701901","Sasha",2015-09-04 04:55:00,"09/04/2015 04:55:00 PM","1801 Wells Branch in Travis (TX)","Stray","Normal","Dog","Spayed Female","1 year","Pit Bull Mix","Blue","Sasha",2015-09-16 12:20:00,"09/16/2015 12:20:00 PM","05/06/2014","Missing","Possible Theft","Dog","Spayed Female","1 year","Pit Bull Mix","Blue",17725,30.434166,-97.6756862
"A701901","Sasha",2015-11-15 01:06:00,"11/15/2015 01:06:00 PM","12116 Research Blvd in Austin (TX)","Public Assist","Normal","Dog","Spayed Female","1 year","Pit Bull Mix","Blue","Sasha",2015-11-30 05:12:00,"11/30/2015 05:12:00 PM","05/06/2014","Return to Owner","","Dog","Spayed Female","1 year","Pit Bull Mix","Blue",21846,30.4245879,-97.7508507
"A701901","Sasha",2015-12-10 01:23:00,"12/10/2015 01:23:00 PM","Bois D' Ard Rd/ Tower Ln in Travis (TX)","Public Assist","Normal","Dog","Spayed Female","1 year","Pit Bull Mix","Blue","Sasha",2015-12-12 04:14:00,"12/12/2015 04:14:00 PM","05/06/2014","Return to Owner","","Dog","Spayed Female","1 year","Pit Bull Mix","Blue",3051,31.1354588,-97.0027678
"A701901","Sasha",2016-03-21 09:23:00,"03/21/2016 09:23:00 AM","4892 W Us 290 in Sunset Valley (TX)","Public Assist","Normal","Dog","Spayed Female","1 year","Pit Bull Mix","Blue","Sasha",2016-04-02 04:45:00,"04/02/2016 04:45:00 PM","05/06/2014","Transfer","Partner","Dog","Spayed Female","1 year","Pit Bull Mix","Blue",17002,30.2345173,-97.8131001
"A702922","Lili",2015-05-23 02:17:00,"05/23/2015 02:17:00 PM","Austin (TX)","Public Assist","Normal","Dog","Intact Female","1 year","Chihuahua Shorthair/Swedish Vallhund","Brown/Black","Lili",2015-05-27 05:02:00,"05/27/2015 05:02:00 PM","03/21/2014","Return to Owner","","Dog","Spayed Female","1 year","Chihuahua Shorthair/Swedish Vallhund","Brown/Black",5925,30.267153,-97.7430608
"A702922","Lili",2015-07-11 01:54:00,"07/11/2015 01:54:00 PM","Austin (TX)","Public Assist","Normal","Dog","Spayed Female","1 year","Chihuahua Shorthair/Swedish Vallhund","Brown/Black","Lili",2015-07-18 12:20:00,"07/18/2015 12:20:00 PM","03/21/2014","Return to Owner","","Dog","Spayed Female","1 year","Chihuahua Shorthair/Swedish Vallhund","Brown/Black",10706,30.267153,-97.7430608
"A702922","Lili",2015-09-03 01:57:00,"09/03/2015 01:57:00 PM","Austin (TX)","Public Assist","Normal","Dog","Spayed Female","1 year","Chihuahua Shorthair/Swedish Vallhund","Brown/Black","Lili",2015-09-12 11:06:00,"09/12/2015 11:06:00 AM","03/21/2014","Return to Owner","","Dog","Spayed Female","1 year","Chihuahua Shorthair/Swedish Vallhund","Brown/Black",13509,30.267153,-97.7430608
"A702922","Lili",2015-12-03 01:44:00,"12/03/2015 01:44:00 PM","4612 Blue Meadow Dr in Austin (TX)","Public Assist","Other","Dog","Spayed Female","1 year","Chihuahua Shorthair/Swedish Vallhund","Brown/Black","Lili",2015-12-10 01:55:00,"12/10/2015 01:55:00 PM","03/21/2014","Return to Owner","","Dog","Spayed Female","1 year","Chihuahua Shorthair/Swedish Vallhund","Brown/Black",10091,30.178808,-97.7562379
"A702922","Lili",2016-09-25 10:51:00,"09/25/2016 10:51:00 AM","6209  Hyland Cir in Austin (TX)","Stray","Normal","Dog","Spayed Female","2 years","Chihuahua Shorthair/Swedish Vallhund","Brown/Black","Lili",2016-10-07 01:40:00,"10/07/2016 01:40:00 PM","03/21/2014","Return to Owner","","Dog","Spayed Female","2 years","Chihuahua Shorthair/Swedish Vallhund","Brown/Black",16729,30.1805301,-97.7584409
"A703649","*Kismet",2015-05-27 04:11:00,"05/27/2015 04:11:00 PM","4604 Molera in Austin (TX)","Stray","Normal","Dog","Intact Female","3 years","Pit Bull Mix","White/Brown","*Kismet",2015-07-04 11:16:00,"07/04/2015 11:16:00 AM","05/27/2012","Adoption","","Dog","Spayed Female","3 years","Pit Bull Mix","White/Brown",55145,30.207779,-97.852967
"A703649","*Kismet",2015-08-13 11:00:00,"08/13/2015 11:00:00 AM","Outside Jurisdiction","Owner Surrender","Normal","Dog","Spayed Female","3 years","Pit Bull Mix","White/Brown","*Kismet",2016-02-18 04:16:00,"02/18/2016 04:16:00 PM","05/27/2012","Adoption","","Dog","Spayed Female","3 years","Pit Bull Mix","White/Brown",271816,30.267153,-97.7430608
"A703649","*Kismet",2016-02-19 02:43:00,"02/19/2016 02:43:00 PM","Cedar Park (TX)","Owner Surrender","Normal","Dog","Spayed Female","3 years","Pit Bull Mix","White/Brown","*Kismet",2016-03-17 04:51:00,"03/17/2016 04:51:00 PM","05/27/2012","Adoption","","Dog","Spayed Female","3 years","Pit Bull Mix","White/Brown",38948,30.505198,-97.8202888
"A703649","*Kismet",2016-03-28 06:36:00,"03/28/2016 06:36:00 PM","Austin (TX)","Owner Surrender","Normal","Dog","Spayed Female","3 years","Pit Bull Mix","White/Brown","*Kismet",2016-06-20 04:52:00,"06/20/2016 04:52:00 PM","05/27/2012","Return to Owner","","Dog","Spayed Female","4 years","Pit Bull Mix","White/Brown",120856,30.267153,-97.7430608
"A703649","*Kismet",2016-06-22 02:27:00,"06/22/2016 02:27:00 PM","4602 Molera Dr in Austin (TX)","Owner Surrender","Normal","Dog","Spayed Female","4 years","Pit Bull Mix","White/Brown","*Kismet",2016-07-27 01:19:00,"07/27/2016 01:19:00 PM","05/27/2012","Adoption","","Dog","Spayed Female","4 years","Pit Bull Mix","White/Brown",50332,30.2076794,-97.8529028
"A704004","Jack",2015-05-31 02:56:00,"05/31/2015 02:56:00 PM","12005 Shady Springs Rd in Austin (TX)","Stray","Normal","Dog","Neutered Male","8 years","Anatol Shepherd Mix","White/Tan","Jack",2015-06-06 01:17:00,"06/06/2015 01:17:00 PM","06/06/2006","Return to Owner","","Dog","Neutered Male","9 years","Anatol Shepherd Mix","White/Tan",8541,30.39659,-97.689794
"A704004","Jack",2015-06-19 10:54:00,"06/19/2015 10:54:00 AM","11901 Swearingen in Austin (TX)","Stray","Normal","Dog","Neutered Male","9 years","Anatol Shepherd Mix","White/Tan","Jack",2015-07-09 05:39:00,"07/09/2015 05:39:00 PM","06/06/2006","Adoption","","Dog","Neutered Male","9 years","Anatol Shepherd Mix","White/Tan",28485,30.394598,-97.6922992
"A704004","Jack",2015-07-10 05:55:00,"07/10/2015 05:55:00 PM","Austin (TX)","Owner Surrender","Normal","Dog","Neutered Male","9 years","Anatol Shepherd Mix","White/Tan","Jack",2015-07-18 01:18:00,"07/18/2015 01:18:00 PM","06/06/2006","Adoption","","Dog","Neutered Male","9 years","Anatol Shepherd Mix","White/Tan",11243,30.267153,-97.7430608
"A704004","Jack",2015-07-23 11:59:00,"07/23/2015 11:59:00 AM","Pflugerville (TX)","Owner Surrender","Normal","Dog","Neutered Male","9 years","Anatol Shepherd Mix","White/Tan","Jack",2015-08-06 05:10:00,"08/06/2015 05:10:00 PM","06/06/2006","Adoption","","Dog","Neutered Male","9 years","Anatol Shepherd Mix","White/Tan",19751,30.4393696,-97.6200043
"A704004","Jack",2015-08-07 10:53:00,"08/07/2015 10:53:00 AM","Austin (TX)","Owner Surrender","Normal","Dog","Neutered Male","9 years","Anatol Shepherd Mix","White/Tan","Jack",2015-08-14 05:54:00,"08/14/2015 05:54:00 PM","06/06/2006","Adoption","","Dog","Neutered Male","9 years","Anatol Shepherd Mix","White/Tan",9781,30.267153,-97.7430608
"A704287","Bevo",2015-06-03 01:22:00,"06/03/2015 01:22:00 PM","124 W Anderson Ln in Austin (TX)","Stray","Normal","Dog","Intact Male","11 years","American Staffordshire Terrier Mix","White/Tan","Bevo",2015-06-03 05:44:00,"06/03/2015 05:44:00 PM","06/03/2004","Return to Owner","","Dog","Intact Male","11 years","American Staffordshire Terrier Mix","White/Tan",262,30.3447022,-97.7052328
"A704287","Bevo",2015-12-16 01:23:00,"12/16/2015 01:23:00 PM","Guadalupe St And W Odell St in Austin (TX)","Stray","Normal","Dog","Intact Male","11 years","American Staffordshire Terrier Mix","White/Tan","Bevo",2015-12-16 05:03:00,"12/16/2015 05:03:00 PM","06/03/2004","Return to Owner","","Dog","Intact Male","11 years","American Staffordshire Terrier Mix","White/Tan",220,30.3385805,-97.7139178
"A704287","Bevo",2016-03-02 12:41:00,"03/02/2016 12:41:00 PM","W St Johns Ave And Guadalupe St in Austin (TX)","Stray","Normal","Dog","Intact Male","11 years","American Staffordshire Terrier Mix","White/Tan","Bevo",2016-05-01 11:07:00,"05/01/2016 11:07:00 AM","06/03/2004","Return to Owner","","Dog","Intact Male","11 years","American Staffordshire Terrier Mix","White/Tan",86246,30.3377868,-97.7144088
"A704287","Bevo",2016-04-30 04:18:00,"04/30/2016 04:18:00 PM","Guadalupe St And W Odell St in Austin (TX)","Stray","Normal","Dog","Intact Male","11 years","American Staffordshire Terrier Mix","White/Tan","Bevo",2016-05-01 11:07:00,"05/01/2016 11:07:00 AM","06/03/2004","Return to Owner","","Dog","Intact Male","11 years","American Staffordshire Terrier Mix","White/Tan",1849,30.3385805,-97.7139178
"A704287","Bevo",2016-05-18 02:30:00,"05/18/2016 02:30:00 PM","W Odell St And Guadalupe St in Austin (TX)","Stray","Normal","Dog","Intact Male","11 years","American Staffordshire Terrier Mix","White/Tan","Bevo",2016-05-18 07:00:00,"05/18/2016 07:00:00 PM","06/03/2004","Return to Owner","","Dog","Intact Male","11 years","American Staffordshire Terrier Mix","White/Tan",270,30.3385805,-97.7139178
"A704287","Bevo",2016-10-14 01:28:00,"10/14/2016 01:28:00 PM","Guadalupe St And Denson Dr in Austin (TX)","Stray","Normal","Dog","Intact Male","12 years","American Staffordshire Terrier Mix","White/Tan","Bevo",2016-10-14 05:55:00,"10/14/2016 05:55:00 PM","06/03/2004","Return to Owner","","Dog","Intact Male","12 years","American Staffordshire Terrier Mix","White/Tan",267,30.3288756,-97.7204271
"A706536","Butch",2015-06-30 10:55:00,"06/30/2015 10:55:00 AM","2820 S Lamar in Austin (TX)","Public Assist","Normal","Dog","Neutered Male","5 years","English Bulldog","Tan/White","Butch",2015-07-03 12:49:00,"07/03/2015 12:49:00 PM","06/30/2010","Return to Owner","","Dog","Neutered Male","5 years","English Bulldog","Tan/White",4434,30.2440682,-97.7822108
"A706536","Butch",2015-07-20 10:19:00,"07/20/2015 10:19:00 AM","5100 West Us Hwy 290 Svrd Wb in Austin (TX)","Public Assist","Normal","Dog","Neutered Male","5 years","English Bulldog","Tan/White","Butch",2015-07-20 12:50:00,"07/20/2015 12:50:00 PM","06/30/2010","Return to Owner","","Dog","Neutered Male","5 years","English Bulldog","Tan/White",151,30.267153,-97.7430608
"A706536","Butch",2015-07-27 04:02:00,"07/27/2015 04:02:00 PM","5100 West Ben White Blvd in Austin (TX)","Public Assist","Normal","Dog","Neutered Male","5 years","English Bulldog","Tan/White","Butch",2015-07-30 04:27:00,"07/30/2015 04:27:00 PM","06/30/2010","Return to Owner","","Dog","Neutered Male","5 years","English Bulldog","Tan/White",4345,30.2137599,-97.7201348
"A706536","Butch",2015-10-21 05:07:00,"10/21/2015 05:07:00 PM","Austin (TX)","Public Assist","Normal","Dog","Neutered Male","5 years","English Bulldog","Tan/White","Butch",2015-10-28 11:34:00,"10/28/2015 11:34:00 AM","06/30/2010","Return to Owner","","Dog","Neutered Male","5 years","English Bulldog","Tan/White",10467,30.267153,-97.7430608
"A706536","Butch",2015-12-20 02:06:00,"12/20/2015 02:06:00 PM","5100 Us-290 in Austin (TX)","Public Assist","Normal","Dog","Neutered Male","5 years","English Bulldog","Tan/White","Butch",2015-12-26 01:41:00,"12/26/2015 01:41:00 PM","06/30/2010","Return to Owner","","Dog","Neutered Male","5 years","English Bulldog","Tan/White",8615,30.2362133,-97.8262349
"A706536","Butch",2016-01-08 11:37:00,"01/08/2016 11:37:00 AM","5100 Us 290 #302 in Austin (TX)","Public Assist","Normal","Dog","Neutered Male","5 years","English Bulldog","Tan/White","Butch",2016-01-11 12:46:00,"01/11/2016 12:46:00 PM","06/30/2010","Return to Owner","","Dog","Neutered Male","5 years","English Bulldog","Tan/White",4389,30.2379901,-97.8258307
"A706536","Butch",2016-02-15 12:38:00,"02/15/2016 12:38:00 PM","Austin (TX)","Stray","Normal","Dog","Neutered Male","5 years","English Bulldog","Tan/White","Butch",2016-02-19 07:15:00,"02/19/2016 07:15:00 PM","06/30/2010","Return to Owner","","Dog","Neutered Male","5 years","English Bulldog","Tan/White",5437,30.267153,-97.7430608
"A706536","Butch",2016-02-22 09:46:00,"02/22/2016 09:46:00 AM","Austin (TX)","Public Assist","Normal","Dog","Neutered Male","5 years","English Bulldog","Tan/White","Butch",2016-02-22 10:49:00,"02/22/2016 10:49:00 AM","06/30/2010","Return to Owner","","Dog","Neutered Male","5 years","English Bulldog","Tan/White",63,30.267153,-97.7430608
"A706536","Butch",2016-03-18 10:44:00,"03/18/2016 10:44:00 AM","10101 S 1St St #8 in Austin (TX)","Public Assist","Normal","Dog","Neutered Male","5 years","English Bulldog","Tan/White","Butch",2016-03-29 02:23:00,"03/29/2016 02:23:00 PM","06/30/2010","Return to Owner","","Dog","Neutered Male","5 years","English Bulldog","Tan/White",15339,30.4108644,-97.9160589
"A706536","Butch",2016-03-26 01:50:00,"03/26/2016 01:50:00 PM","Austin (TX)","Public Assist","Normal","Dog","Neutered Male","5 years","English Bulldog","Tan/White","Butch",2016-03-29 02:23:00,"03/29/2016 02:23:00 PM","06/30/2010","Return to Owner","","Dog","Neutered Male","5 years","English Bulldog","Tan/White",4353,30.267153,-97.7430608
"A707114","Terri",2015-07-08 11:03:00,"07/08/2015 11:03:00 AM","6101 Toscana Ave in Austin (TX)","Stray","Normal","Dog","Intact Male","1 year","American Staffordshire Terrier Mix","White/Brown Brindle","Terri",2015-07-13 03:29:00,"07/13/2015 03:29:00 PM","07/08/2014","Return to Owner","","Dog","Neutered Male","1 year","American Staffordshire Terrier Mix","White/Brown Brindle",6746,30.290884,-97.641345
"A707114","Terri",2015-07-15 08:22:00,"07/15/2015 08:22:00 AM","Sendero Hills / Mlk in Austin (TX)","Stray","Normal","Dog","Neutered Male","1 year","American Staffordshire Terrier Mix","White/Brown Brindle","Terri",2015-07-15 11:34:00,"07/15/2015 11:34:00 AM","07/08/2014","Return to Owner","","Dog","Neutered Male","1 year","American Staffordshire Terrier Mix","White/Brown Brindle",192,30.2910084,-97.647016
"A707114","Terri",2015-08-23 11:09:00,"08/23/2015 11:09:00 AM","6140 Seville Dr in Austin (TX)","Stray","Normal","Dog","Neutered Male","1 year","American Staffordshire Terrier Mix","White/Brown Brindle","Terri",2015-08-25 02:23:00,"08/25/2015 02:23:00 PM","07/08/2014","Return to Owner","","Dog","Neutered Male","1 year","American Staffordshire Terrier Mix","White/Brown Brindle",2354,30.292946,-97.642735
"A707114","Terri",2015-08-24 08:30:00,"08/24/2015 08:30:00 AM","5912 Pinion in Austin (TX)","Stray","Normal","Dog","Neutered Male","1 year","American Staffordshire Terrier Mix","White/Brown Brindle","Terri",2015-08-25 02:23:00,"08/25/2015 02:23:00 PM","07/08/2014","Return to Owner","","Dog","Neutered Male","1 year","American Staffordshire Terrier Mix","White/Brown Brindle",1073,30.2905165,-97.6441914
"A707114","Terri",2015-09-03 11:13:00,"09/03/2015 11:13:00 AM","5508 Toscana in Austin (TX)","Stray","Normal","Dog","Neutered Male","1 year","American Staffordshire Terrier Mix","White/Brown Brindle","Terri",2015-09-22 05:23:00,"09/22/2015 05:23:00 PM","07/08/2014","Adoption","","Dog","Neutered Male","1 year","American Staffordshire Terrier Mix","White/Brown Brindle",27010,30.286899,-97.64689
"A712510","*Milo",2015-09-24 01:38:00,"09/24/2015 01:38:00 PM","5808 Mckinney Falls Pkwy in Austin (TX)","Stray","Normal","Dog","Intact Male","6 months","German Shepherd Mix","White/Brown","*Milo",2015-09-25 06:00:00,"09/25/2015 06:00:00 PM","02/24/2015","Return to Owner","","Dog","Intact Male","7 months","German Shepherd Mix","White/Brown",1702,30.1807597,-97.721997
"A712510","*Milo",2015-12-12 03:46:00,"12/12/2015 03:46:00 PM","Bluff Springs And William Cannon in Austin (TX)","Stray","Normal","Dog","Intact Male","9 months","German Shepherd Mix","White/Brown","*Milo",2015-12-26 06:02:00,"12/26/2015 06:02:00 PM","02/24/2015","Adoption","","Dog","Neutered Male","10 months","German Shepherd Mix","White/Brown",20296,30.1891287,-97.7679054
"A712510","*Milo",2016-03-12 03:14:00,"03/12/2016 03:14:00 PM","Austin (TX)","Stray","Normal","Dog","Neutered Male","1 year","German Shepherd Mix","White/Brown","*Milo",2016-03-14 01:51:00,"03/14/2016 01:51:00 PM","02/24/2015","Return to Owner","","Dog","Neutered Male","1 year","German Shepherd Mix","White/Brown",2737,30.267153,-97.7430608
"A712510","*Milo",2016-03-15 06:13:00,"03/15/2016 06:13:00 PM","Austin (TX)","Public Assist","Normal","Dog","Neutered Male","1 year","German Shepherd Mix","White/Brown","*Milo",2016-03-17 04:50:00,"03/17/2016 04:50:00 PM","02/24/2015","Return to Owner","","Dog","Neutered Male","1 year","German Shepherd Mix","White/Brown",2797,30.267153,-97.7430608
"A712510","*Milo",2016-06-27 12:06:00,"06/27/2016 12:06:00 PM","8207 Canoga Ave in Austin (TX)","Stray","Normal","Dog","Neutered Male","1 year","German Shepherd Mix","White/Brown","*Milo",2016-07-23 01:46:00,"07/23/2016 01:46:00 PM","02/24/2015","Adoption","Foster","Dog","Neutered Male","1 year","German Shepherd Mix","White/Brown",36820,30.2842871,-97.636466
"A716018","*Luke",2015-11-13 10:46:00,"11/13/2015 10:46:00 AM","Roseborough Dr And Running Water in Austin (TX)","Stray","Normal","Dog","Intact Male","4 months","Pit Bull Mix","Fawn/White","*Luke",2015-11-14 04:20:00,"11/14/2015 04:20:00 PM","06/14/2015","Return to Owner","","Dog","Intact Male","5 months","Pit Bull Mix","Fawn/White",1054,30.159958,-97.7408942
"A716018","*Luke",2016-04-15 10:30:00,"04/15/2016 10:30:00 PM","7413 Crepe Myrtle Dr in Austin (TX)","Stray","Normal","Dog","Intact Male","10 months","Pit Bull Mix","Fawn/White","*Luke",2016-04-30 06:01:00,"04/30/2016 06:01:00 PM","06/14/2015","Adoption","","Dog","Neutered Male","10 months","Pit Bull Mix","Fawn/White",21331,30.1642634,-97.7368316
"A716018","*Luke",2016-05-07 11:52:00,"05/07/2016 11:52:00 AM","Austin (TX)","Owner Surrender","Normal","Dog","Neutered Male","10 months","Pit Bull Mix","Fawn/White","*Luke",2016-05-10 03:49:00,"05/10/2016 03:49:00 PM","06/14/2015","Adoption","","Dog","Neutered Male","10 months","Pit Bull Mix","Fawn/White",3837,30.267153,-97.7430608
"A716018","*Luke",2016-09-12 06:11:00,"09/12/2016 06:11:00 PM","8509 Fm 969 in Austin (TX)","Stray","Normal","Dog","Neutered Male","1 year","Pit Bull Mix","Fawn/White","*Luke",2016-09-12 07:00:00,"09/12/2016 07:00:00 PM","06/14/2015","Return to Owner","","Dog","Neutered Male","1 year","Pit Bull Mix","Fawn/White",49,30.2735262,-97.6389491
"A716018","*Luke",2016-10-17 02:06:00,"10/17/2016 02:06:00 PM","6200 Loyola Lane in Austin (TX)","Stray","Normal","Dog","Neutered Male","1 year","Pit Bull Mix","Fawn/White","*Luke",2016-10-17 05:43:00,"10/17/2016 05:43:00 PM","06/14/2015","Return to Owner","","Dog","Neutered Male","1 year","Pit Bull Mix","Fawn/White",217,30.3029683,-97.6496185
"A719117","Morocco",2016-01-13 12:59:00,"01/13/2016 12:59:00 PM","973 And Platt Ln in Austin (TX)","Stray","Normal","Dog","Intact Male","7 months","Labrador Retriever Mix","Yellow","Morocco",2016-01-14 06:41:00,"01/14/2016 06:41:00 PM","06/13/2015","Return to Owner","","Dog","Neutered Male","7 months","Labrador Retriever Mix","Yellow",1062,30.2331093,-97.6270136
"A719117","Morocco",2016-04-11 08:39:00,"04/11/2016 08:39:00 AM","6711 Johnny Morrios in Austin (TX)","Stray","Injured","Dog","Neutered Male","9 months","Labrador Retriever Mix","Yellow","Morocco",2016-05-09 05:22:00,"05/09/2016 05:22:00 PM","06/13/2015","Return to Owner","","Dog","Neutered Male","10 months","Labrador Retriever Mix","Yellow",40123,30.3010887,-97.6467738
"A719117","Morocco",2016-05-09 04:35:00,"05/09/2016 04:35:00 PM","13613 Fallwell Ln in Austin (TX)","Stray","Normal","Dog","Neutered Male","10 months","Labrador Retriever Mix","Yellow","Morocco",2016-05-09 05:22:00,"05/09/2016 05:22:00 PM","06/13/2015","Return to Owner","","Dog","Neutered Male","10 months","Labrador Retriever Mix","Yellow",47,30.211487,-97.6144424
"A719117","Morocco",2016-05-15 01:07:00,"05/15/2016 01:07:00 PM","Fm 973 And Hwy 71 in Austin (TX)","Stray","Normal","Dog","Neutered Male","11 months","Labrador Retriever Mix","Yellow","Morocco",2016-05-15 02:33:00,"05/15/2016 02:33:00 PM","06/13/2015","Return to Owner","","Dog","Neutered Male","11 months","Labrador Retriever Mix","Yellow",86,30.2023861,-97.6376368
"A719117","Morocco",2016-05-21 04:49:00,"05/21/2016 04:49:00 PM","10803 Platt Ln in Austin (TX)","Stray","Normal","Dog","Neutered Male","11 months","Labrador Retriever Mix","Yellow","Morocco",2016-05-24 06:39:00,"05/24/2016 06:39:00 PM","06/13/2015","Return to Owner","","Dog","Neutered Male","11 months","Labrador Retriever Mix","Yellow",4430,30.232676,-97.637435
"A720393","Teddy",2016-02-08 03:46:00,"02/08/2016 03:46:00 PM","Austin (TX)","Owner Surrender","Normal","Dog","Intact Male","3 years","German Shepherd Mix","Tan/White","Teddy",2016-02-14 04:22:00,"02/14/2016 04:22:00 PM","02/08/2013","Adoption","","Dog","Neutered Male","3 years","German Shepherd Mix","Tan/White",8676,30.267153,-97.7430608
"A720393","Teddy",2016-03-12 05:17:00,"03/12/2016 05:17:00 PM","Austin (TX)","Owner Surrender","Normal","Dog","Neutered Male","3 years","German Shepherd Mix","Tan/White","Teddy",2016-03-16 04:31:00,"03/16/2016 04:31:00 PM","02/08/2013","Adoption","","Dog","Neutered Male","3 years","German Shepherd Mix","Tan/White",5654,30.267153,-97.7430608
"A720393","Teddy",2016-03-25 02:55:00,"03/25/2016 02:55:00 PM","Austin (TX)","Owner Surrender","Normal","Dog","Neutered Male","3 years","German Shepherd Mix","Tan/White","Teddy",2016-03-27 03:18:00,"03/27/2016 03:18:00 PM","02/08/2013","Return to Owner","","Dog","Neutered Male","3 years","German Shepherd Mix","Tan/White",2903,30.267153,-97.7430608
"A720393","Teddy",2016-04-04 05:15:00,"04/04/2016 05:15:00 PM","Austin (TX)","Owner Surrender","Normal","Dog","Neutered Male","3 years","German Shepherd Mix","Tan/White","Teddy",2016-04-16 03:36:00,"04/16/2016 03:36:00 PM","02/08/2013","Transfer","Partner","Dog","Neutered Male","3 years","German Shepherd Mix","Tan/White",17181,30.267153,-97.7430608
